{"type":"FeatureCollection","features":[{"type":"Feature","geometry":{"type":"Point","coordinates":[5.2406375,50.5392719]},"properties":{"name":"Bio Vital","street":"142 rue de Leumont","postcode":"4520","city":"Wanze","categories":"fill&enjoy ,fill&serve ,fill&go ,waterbars","telephone (optional)":null}},{"type":"Feature","geometry":{"type":"Point","coordinates":[4.9718374,50.9738608]},"properties":{"name":"Colruyt","street":"A. Nihoulstaat 139","postcode":"3270","city":"Scherpenheuvel","categories":"fill&enjoy ,fill&serve ,fill&go ,waterbars","telephone (optional)":null}},{"type":"Feature","geometry":{"type":"Point","coordinates":[6.032671,50.633537]},"properties":{"name":"Delhaize","street":"Aachener Strasse 38","postcode":"4700","city":"Eupen","categories":"fill&enjoy ,fill&serve ,fill&go ,waterbars","telephone (optional)":null}},{"type":"Feature","geometry":{"type":"Point","coordinates":[3.9321764,50.8129438]},"properties":{"name":"DHZ Vanderschueren","street":"Aalstsesteenweg 255","postcode":"9506","city":"Geraardsbergen","categories":"fill&enjoy ,fill&serve ,fill&go ,waterbars","telephone (optional)":null}},{"type":"Feature","geometry":{"type":"Point","coordinates":[4.7130981,50.9096717]},"properties":{"name":"Metaleuven","street":"Aarschotse Steenweg 145","postcode":"3012","city":"Wilsele","categories":"fill&enjoy ,fill&serve ,fill&go ,waterbars","telephone (optional)":null}},{"type":"Feature","geometry":{"type":"Point","coordinates":[4.7194756,50.9205526]},"properties":{"name":"DE Sander - Selexion","street":"Aarschotsesteenweg 552","postcode":"3012","city":"Wilsele","categories":"fill&enjoy ,fill&serve ,fill&go ,waterbars","telephone (optional)":null}},{"type":"Feature","geometry":{"type":"Point","coordinates":[4.3832036,51.1882463]},"properties":{"name":"Selexion Sertyn","street":"Abdijstraat 135","postcode":"2020","city":"Antwerpen","categories":"fill&enjoy ,fill&serve ,fill&go ,waterbars","telephone (optional)":null}},{"type":"Feature","geometry":{"type":"Point","coordinates":[4.362034,51.332875]},"properties":{"name":"Colruyt","street":"Abtsdreef 10 E","postcode":"2940","city":"Stabroek","categories":"fill&enjoy ,fill&serve ,fill&go ,waterbars","telephone (optional)":null}},{"type":"Feature","geometry":{"type":"Point","coordinates":[5.3079132,51.2339537]},"properties":{"name":"Vreys Electro","street":"Adelberg 15","postcode":"3920","city":"Lommel","categories":"fill&enjoy ,fill&serve ,fill&go ,waterbars","telephone (optional)":null}},{"type":"Feature","geometry":{"type":"Point","coordinates":[3.738275,51.0686765]},"properties":{"name":"Eldi","street":"Afrikalaan 99","postcode":"9000","city":"Gent","categories":"fill&enjoy ,fill&serve ,fill&go ,waterbars","telephone (optional)":null}},{"type":"Feature","geometry":{"type":"Point","coordinates":[2.942974,51.229985]},"properties":{"name":"Vansevenant-Vandamme ","street":"Aimé Liebaertstraat 32-34","postcode":"8400","city":"Oostende","categories":"fill&enjoy ,fill&serve ,fill&go ,waterbars","telephone (optional)":null}},{"type":"Feature","geometry":{"type":"Point","coordinates":[4.0092098,50.839075]},"properties":{"name":"Krëfel","street":"Albertlaan 120","postcode":"9400","city":"Ninove","categories":"fill&enjoy ,fill&serve ,fill&go ,waterbars","telephone (optional)":null}},{"type":"Feature","geometry":{"type":"Point","coordinates":[4.0087131,50.8377875]},"properties":{"name":"Carrefour","street":"Albertlaan 80","postcode":"9400","city":"Ninove","categories":"fill&enjoy ,fill&serve ,fill&go ,waterbars","telephone (optional)":null}},{"type":"Feature","geometry":{"type":"Point","coordinates":[4.9325295,50.8133444]},"properties":{"name":"Carrefour","street":"Albertvest 15","postcode":"3300","city":"Tienen","categories":"fill&enjoy ,fill&serve ,fill&go ,waterbars","telephone (optional)":null}},{"type":"Feature","geometry":{"type":"Point","coordinates":[2.9140341,51.2259544]},"properties":{"name":"PRIFIX","street":"Alfons Pieterslaan 46-48","postcode":"8400","city":"Oostende","categories":"fill&enjoy ,fill&serve ,fill&go ,waterbars","telephone (optional)":null}},{"type":"Feature","geometry":{"type":"Point","coordinates":[5.6832832,50.7376946]},"properties":{"name":"Praillet","street":"Allée Verte 2","postcode":"4600","city":"Visé","categories":"fill&enjoy ,fill&serve ,fill&go ,waterbars","telephone (optional)":null}},{"type":"Feature","geometry":{"type":"Point","coordinates":[3.7401813,51.0569621]},"properties":{"name":"Eldi","street":"Antwerpenplein 24","postcode":"9000","city":"Gent","categories":"fill&enjoy ,fill&serve ,fill&go ,waterbars","telephone (optional)":null}},{"type":"Feature","geometry":{"type":"Point","coordinates":[4.4097961,51.3040193]},"properties":{"name":"Eldi","street":"Antwerpse Steenweg 85","postcode":"2940","city":"Hoevenen","categories":"fill&enjoy ,fill&serve ,fill&go ,waterbars","telephone (optional)":null}},{"type":"Feature","geometry":{"type":"Point","coordinates":[3.7706182,51.0706812]},"properties":{"name":"Vanden Borre","street":"Antwerpsesteenweg 113","postcode":"9080","city":"Lochristi","categories":"fill&enjoy ,fill&serve ,fill&go ,waterbars","telephone (optional)":null}},{"type":"Feature","geometry":{"type":"Point","coordinates":[4.4559179,51.1413673]},"properties":{"name":"Delhaize","street":"Antwerpsesteenweg 127","postcode":"2550","city":"Kontich","categories":"fill&enjoy ,fill&serve ,fill&go ,waterbars","telephone (optional)":null}},{"type":"Feature","geometry":{"type":"Point","coordinates":[4.6864436,51.2973425]},"properties":{"name":"Colruyt","street":"Antwerpsesteenweg 335","postcode":"2390","city":"Westmalle","categories":"fill&enjoy ,fill&serve ,fill&go ,waterbars","telephone (optional)":null}},{"type":"Feature","geometry":{"type":"Point","coordinates":[4.5370638,51.1481182]},"properties":{"name":"Krëfel","street":"Antwerpsesteenweg 366","postcode":"2500","city":"Lier","categories":"fill&enjoy ,fill&serve ,fill&go ,waterbars","telephone (optional)":null}},{"type":"Feature","geometry":{"type":"Point","coordinates":[4.5421958,51.1451056]},"properties":{"name":"Eldi","street":"Antwerpsesteenweg 447","postcode":"2500","city":"Lier","categories":"fill&enjoy ,fill&serve ,fill&go ,waterbars","telephone (optional)":null}},{"type":"Feature","geometry":{"type":"Point","coordinates":[3.7512258,51.0632996]},"properties":{"name":"Bio Shop St.Amandsberg","street":"Antwerpsesteenweg 450","postcode":"9040","city":"Sint-Amandsberg","categories":"fill&enjoy ,fill&serve ,fill&go ,waterbars","telephone (optional)":null}},{"type":"Feature","geometry":{"type":"Point","coordinates":[3.7808903,51.0766326]},"properties":{"name":"Krëfel","street":"Antwerpsesteenweg 761 B","postcode":"9040","city":"Oostakker","categories":"fill&enjoy ,fill&serve ,fill&go ,waterbars","telephone (optional)":null}},{"type":"Feature","geometry":{"type":"Point","coordinates":[3.780044,51.0753782]},"properties":{"name":"NV Deschacht","street":"Antwerpsestwg 21","postcode":"9080","city":"Lochristi","categories":"fill&enjoy ,fill&serve ,fill&go ,waterbars","telephone (optional)":null}},{"type":"Feature","geometry":{"type":"Point","coordinates":[4.953349,51.1456865]},"properties":{"name":"Colruyt","street":"Antwerpseweg 89","postcode":"2440","city":"Geel","categories":"fill&enjoy ,fill&serve ,fill&go ,waterbars","telephone (optional)":null}},{"type":"Feature","geometry":{"type":"Point","coordinates":[3.8671942,50.7698545]},"properties":{"name":"Krëfel","street":"Astridlaan 40","postcode":"9500","city":"Geraardsbergen","categories":"fill&enjoy ,fill&serve ,fill&go ,waterbars","telephone (optional)":null}},{"type":"Feature","geometry":{"type":"Point","coordinates":[4.3606415,51.0616198]},"properties":{"name":"Carsau-Persiau - euronics","street":"August Van Landeghemstraat 37","postcode":"2830","city":"Willebroek","categories":"fill&enjoy ,fill&serve ,fill&go ,waterbars","telephone (optional)":null}},{"type":"Feature","geometry":{"type":"Point","coordinates":[4.3363609,50.8689027]},"properties":{"name":"Delhaize","street":"Auguste Hainautstraat 28","postcode":"1090","city":"Jette","categories":"fill&enjoy ,fill&serve ,fill&go ,waterbars","telephone (optional)":null}},{"type":"Feature","geometry":{"type":"Point","coordinates":[5.579815,50.5666035]},"properties":{"name":"Peret","street":"Av de La Boule 65","postcode":"4130","city":"Tilff","categories":"fill&enjoy ,fill&serve ,fill&go ,waterbars","telephone (optional)":null}},{"type":"Feature","geometry":{"type":"Point","coordinates":[4.3819184,50.8168684]},"properties":{"name":"Bio Shanti","street":"Av. Adolphe Buyl 70","postcode":"1050","city":"Ixelles","categories":"fill&enjoy ,fill&serve ,fill&go ,waterbars","telephone (optional)":null}},{"type":"Feature","geometry":{"type":"Point","coordinates":[4.2923159,50.872043]},"properties":{"name":"Carrefour","street":"Av. Charles Quint 560","postcode":"1082","city":"Berchem St Agathe","categories":"fill&enjoy ,fill&serve ,fill&go ,waterbars","telephone (optional)":null}},{"type":"Feature","geometry":{"type":"Point","coordinates":[4.1981319,50.4850036]},"properties":{"name":"Krëfel","street":"Av. de Wallonie 5","postcode":"7100","city":"La Louvière","categories":"fill&enjoy ,fill&serve ,fill&go ,waterbars","telephone (optional)":null}},{"type":"Feature","geometry":{"type":"Point","coordinates":[4.4044232,50.8685716]},"properties":{"name":"Carrefour","street":"Av. Des Olympiades 12","postcode":"1140","city":"Evere","categories":"fill&enjoy ,fill&serve ,fill&go ,waterbars","telephone (optional)":null}},{"type":"Feature","geometry":{"type":"Point","coordinates":[4.889002,50.463255]},"properties":{"name":"Carrefour","street":"Av. Prince de Liège 57-59","postcode":"5100","city":"Jambes","categories":"fill&enjoy ,fill&serve ,fill&go ,waterbars","telephone (optional)":null}},{"type":"Feature","geometry":{"type":"Point","coordinates":[5.2514753,50.6952124]},"properties":{"name":"Sohet","street":"Av. Reine Astrid 21","postcode":"4300","city":"Waremme","categories":"fill&enjoy ,fill&serve ,fill&go ,waterbars","telephone (optional)":null}},{"type":"Feature","geometry":{"type":"Point","coordinates":[3.3335097,50.8113989]},"properties":{"name":"Toverfles","street":"Avelgemstraat 38","postcode":"8550","city":"Zwevegem","categories":"fill&enjoy ,fill&serve ,fill&go ,waterbars","telephone (optional)":null}},{"type":"Feature","geometry":{"type":"Point","coordinates":[4.5160218,50.7231353]},"properties":{"name":"Mr. Bricolage","street":"Avenue Albert 1er 321","postcode":"1332","city":"Genval","categories":"fill&enjoy ,fill&serve ,fill&go ,waterbars","telephone (optional)":null}},{"type":"Feature","geometry":{"type":"Point","coordinates":[4.4887519,50.7279395]},"properties":{"name":"Delhaize","street":"Avenue Albert Ier 13","postcode":"1332","city":"Genval","categories":"fill&enjoy ,fill&serve ,fill&go ,waterbars","telephone (optional)":null}},{"type":"Feature","geometry":{"type":"Point","coordinates":[4.38718,50.8364929]},"properties":{"name":"Electropromo","street":"Avenue Auderghem 150","postcode":"1040","city":"Etterbeek","categories":"fill&enjoy ,fill&serve ,fill&go ,waterbars","telephone (optional)":null}},{"type":"Feature","geometry":{"type":"Point","coordinates":[4.4409112,50.4677223]},"properties":{"name":"Krëfel ","street":"Avenue Chêne St Jean 21","postcode":"6041","city":"Gosselies","categories":"fill&enjoy ,fill&serve ,fill&go ,waterbars","telephone (optional)":null}},{"type":"Feature","geometry":{"type":"Point","coordinates":[4.420486,50.861311]},"properties":{"name":"Medi-Market","street":"Avenue Cicero 7","postcode":"1140","city":"Evere","categories":"fill&enjoy ,fill&serve ,fill&go ,waterbars","telephone (optional)":null}},{"type":"Feature","geometry":{"type":"Point","coordinates":[3.9821153,50.4969668]},"properties":{"name":"Selexion Shape","street":"Avenue Copenhague 505","postcode":"7010","city":"Shape","categories":"fill&enjoy ,fill&serve ,fill&go ,waterbars","telephone (optional)":null}},{"type":"Feature","geometry":{"type":"Point","coordinates":[5.1032143,50.4941266]},"properties":{"name":"Vanden Borre","street":"Avenue de Belle Mine 23","postcode":"5300","city":"Andennne","categories":"fill&enjoy ,fill&serve ,fill&go ,waterbars","telephone (optional)":null}},{"type":"Feature","geometry":{"type":"Point","coordinates":[5.3543267,49.9121774]},"properties":{"name":"Vanden Borre","street":"Avenue de Bouillon 139","postcode":"6800","city":"Libramont","categories":"fill&enjoy ,fill&serve ,fill&go ,waterbars","telephone (optional)":null}},{"type":"Feature","geometry":{"type":"Point","coordinates":[5.7403974,50.632838]},"properties":{"name":"ViBio","street":"Avenue de la Résistance 360","postcode":"4630","city":"Soumange","categories":"fill&enjoy ,fill&serve ,fill&go ,waterbars","telephone (optional)":null}},{"type":"Feature","geometry":{"type":"Point","coordinates":[4.4566294,50.3950402]},"properties":{"name":"Bio-Planet","street":"Avenue de Philippeville 229","postcode":"6001","city":"Marcinelle","categories":"fill&enjoy ,fill&serve ,fill&go ,waterbars","telephone (optional)":null}},{"type":"Feature","geometry":{"type":"Point","coordinates":[6.0230203,50.4255581]},"properties":{"name":"Colruyt","street":"Avenue des Alliés 2","postcode":"4960","city":"Malmédy","categories":"fill&enjoy ,fill&serve ,fill&go ,waterbars","telephone (optional)":null}},{"type":"Feature","geometry":{"type":"Point","coordinates":[4.3699052,50.8478587]},"properties":{"name":"Heure Bleue (L')","street":"Avenue des Arts 12","postcode":"1210","city":"St. Josse","categories":"fill&enjoy ,fill&serve ,fill&go ,waterbars","telephone (optional)":null}},{"type":"Feature","geometry":{"type":"Point","coordinates":[4.4271761,50.8552009]},"properties":{"name":"Cora","street":"Avenue des Communautés","postcode":"1200","city":"Woluwe","categories":"fill&enjoy ,fill&serve ,fill&go ,waterbars","telephone (optional)":null}},{"type":"Feature","geometry":{"type":"Point","coordinates":[5.672895,50.616471]},"properties":{"name":"Colruyt","street":"Avenue des Matrys 45","postcode":"4620","city":"Fléron","categories":"fill&enjoy ,fill&serve ,fill&go ,waterbars","telephone (optional)":null}},{"type":"Feature","geometry":{"type":"Point","coordinates":[5.2158938,50.5265736]},"properties":{"name":"Krëfel ","street":"Avenue du Bosquet 34","postcode":"4500","city":"Huy","categories":"fill&enjoy ,fill&serve ,fill&go ,waterbars","telephone (optional)":null}},{"type":"Feature","geometry":{"type":"Point","coordinates":[5.215937,50.5263444]},"properties":{"name":"Electro St-Germain","street":"Avenue du Bosquet 35A","postcode":"4500","city":"Huy","categories":"fill&enjoy ,fill&serve ,fill&go ,waterbars","telephone (optional)":null}},{"type":"Feature","geometry":{"type":"Point","coordinates":[4.5684554,50.6641413]},"properties":{"name":"Colruyt","street":"Avenue du Douaire 2038","postcode":"1340","city":"Ottignies","categories":"fill&enjoy ,fill&serve ,fill&go ,waterbars","telephone (optional)":null}},{"type":"Feature","geometry":{"type":"Point","coordinates":[5.5252818,50.6730149]},"properties":{"name":"Makro","street":"Avenue du Progrés 12","postcode":"4432","city":"Alleur","categories":"fill&enjoy ,fill&serve ,fill&go ,waterbars","telephone (optional)":null}},{"type":"Feature","geometry":{"type":"Point","coordinates":[4.5188791,50.3950672]},"properties":{"name":"Delhaize","street":"Avenue Emile Vandervelde","postcode":"6200","city":"Bouffioulx","categories":"fill&enjoy ,fill&serve ,fill&go ,waterbars","telephone (optional)":null}},{"type":"Feature","geometry":{"type":"Point","coordinates":[4.3389268,50.8159684]},"properties":{"name":"Van den Berg Ets. R.","street":"Avenue Everard 40","postcode":"1190","city":"Forest","categories":"fill&enjoy ,fill&serve ,fill&go ,waterbars","telephone (optional)":null}},{"type":"Feature","geometry":{"type":"Point","coordinates":[5.5801721,50.5669764]},"properties":{"name":"Blé en Herbe (Le)","street":"Avenue Laboulle 90","postcode":"4130","city":"Tilff","categories":"fill&enjoy ,fill&serve ,fill&go ,waterbars","telephone (optional)":null}},{"type":"Feature","geometry":{"type":"Point","coordinates":[4.3251921,50.8720292]},"properties":{"name":"Bio Sens","street":"Avenue Laeken 13","postcode":"1090","city":"Jette","categories":"fill&enjoy ,fill&serve ,fill&go ,waterbars","telephone (optional)":null}},{"type":"Feature","geometry":{"type":"Point","coordinates":[6.0422946,50.4220992]},"properties":{"name":"Carrefour","street":"Avenue Mon Bijou 69","postcode":"4960","city":"Malmédy","categories":"fill&enjoy ,fill&serve ,fill&go ,waterbars","telephone (optional)":null}},{"type":"Feature","geometry":{"type":"Point","coordinates":[4.3087612,50.7940808]},"properties":{"name":"Carrefour","street":"Avenue Paul Gilson 455","postcode":"1620","city":"Drogenbos","categories":"fill&enjoy ,fill&serve ,fill&go ,waterbars","telephone (optional)":null}},{"type":"Feature","geometry":{"type":"Point","coordinates":[4.884266,50.463932]},"properties":{"name":"Vanden Borre","street":"Avenue Prince de Liège 115","postcode":"5100","city":"Jambes","categories":"fill&enjoy ,fill&serve ,fill&go ,waterbars","telephone (optional)":null}},{"type":"Feature","geometry":{"type":"Point","coordinates":[4.8796288,50.4622653]},"properties":{"name":"Delhaize","street":"Avenue Prince de Liège 41","postcode":"5100","city":"Jambes","categories":"fill&enjoy ,fill&serve ,fill&go ,waterbars","telephone (optional)":null}},{"type":"Feature","geometry":{"type":"Point","coordinates":[4.5635897,50.6533271]},"properties":{"name":"Mondo Bio","street":"Avenue Provinciale 76","postcode":"1490","city":"Court -St-Etienne","categories":"fill&enjoy ,fill&serve ,fill&go ,waterbars","telephone (optional)":null}},{"type":"Feature","geometry":{"type":"Point","coordinates":[5.6706096,50.7342671]},"properties":{"name":"Al'Binète","street":"Avenue Reine Elisabeth 17","postcode":"4684","city":"Haccourt","categories":"fill&enjoy ,fill&serve ,fill&go ,waterbars","telephone (optional)":null}},{"type":"Feature","geometry":{"type":"Point","coordinates":[5.6688465,50.7349681]},"properties":{"name":"Delhaize","street":"Avenue Reine Fabiola 27","postcode":"4680","city":"Oupeye","categories":"fill&enjoy ,fill&serve ,fill&go ,waterbars","telephone (optional)":null}},{"type":"Feature","geometry":{"type":"Point","coordinates":[5.1115194,50.3009652]},"properties":{"name":"Vanden Borre","street":"Avenue Schlogel 117","postcode":"5590","city":"Ciney","categories":"fill&enjoy ,fill&serve ,fill&go ,waterbars","telephone (optional)":null}},{"type":"Feature","geometry":{"type":"Point","coordinates":[3.9072568,50.4494096]},"properties":{"name":"Colruyt","street":"Avenue Wilson 415","postcode":"7012","city":"Jemappes","categories":"fill&enjoy ,fill&serve ,fill&go ,waterbars","telephone (optional)":null}},{"type":"Feature","geometry":{"type":"Point","coordinates":[3.9034566,50.44865]},"properties":{"name":"Media Markt","street":"Avenue Wilson 510","postcode":"7012","city":"Jemappes","categories":"fill&enjoy ,fill&serve ,fill&go ,waterbars","telephone (optional)":null}},{"type":"Feature","geometry":{"type":"Point","coordinates":[3.9034566,50.44865]},"properties":{"name":"Vanden Borre","street":"Avenue Wilson 510","postcode":"7012","city":"Jemappes","categories":"fill&enjoy ,fill&serve ,fill&go ,waterbars","telephone (optional)":null}},{"type":"Feature","geometry":{"type":"Point","coordinates":[3.2072228,50.7310484]},"properties":{"name":"Delhaize","street":"Avenue Wolfgang Amadeus Mozart 7","postcode":"7700","city":"Mouscron","categories":"fill&enjoy ,fill&serve ,fill&go ,waterbars","telephone (optional)":null}},{"type":"Feature","geometry":{"type":"Point","coordinates":[4.6163132,50.717376]},"properties":{"name":"Colruyt","street":"Avenues des Princes 45","postcode":"1300","city":"Wavre","categories":"fill&enjoy ,fill&serve ,fill&go ,waterbars","telephone (optional)":null}},{"type":"Feature","geometry":{"type":"Point","coordinates":[4.1377739,50.9516611]},"properties":{"name":"Crabbe Spinoy Elektro","street":"Baardegem-Dorp 89","postcode":"9310","city":"Baardegem","categories":"fill&enjoy ,fill&serve ,fill&go ,waterbars","telephone (optional)":null}},{"type":"Feature","geometry":{"type":"Point","coordinates":[4.1341231,51.0059172]},"properties":{"name":"DHZ Vanderschueren","street":"Baasrodestraat 2","postcode":"9280","city":"Lebbeke","categories":"fill&enjoy ,fill&serve ,fill&go ,waterbars","telephone (optional)":null}},{"type":"Feature","geometry":{"type":"Point","coordinates":[3.3701043,50.9096276]},"properties":{"name":"t'Biotiekje","street":"Baron van Bruggelaan 23","postcode":"8710","city":"Wielsbeke","categories":"fill&enjoy ,fill&serve ,fill&go ,waterbars","telephone (optional)":null}},{"type":"Feature","geometry":{"type":"Point","coordinates":[4.972762,50.9798505]},"properties":{"name":"De Natuurwinkel","street":"Baselieklaan 68","postcode":"3270","city":"Scherpenheuvel","categories":"fill&enjoy ,fill&serve ,fill&go ,waterbars","telephone (optional)":null}},{"type":"Feature","geometry":{"type":"Point","coordinates":[4.2354375,50.7318201]},"properties":{"name":"Delhaize","street":"Basiliekstraat 130","postcode":"1500","city":"Halle","categories":"fill&enjoy ,fill&serve ,fill&go ,waterbars","telephone (optional)":null}},{"type":"Feature","geometry":{"type":"Point","coordinates":[4.4681096,51.029436]},"properties":{"name":"Bio-Planet","street":"Battelsesteenweg 68","postcode":"2800","city":"Mechelen","categories":"fill&enjoy ,fill&serve ,fill&go ,waterbars","telephone (optional)":null}},{"type":"Feature","geometry":{"type":"Point","coordinates":[3.1006712,51.0585876]},"properties":{"name":"Loose NV","street":"Beckhofstraat 92","postcode":"8820","city":"Torhout","categories":"fill&enjoy ,fill&serve ,fill&go ,waterbars","telephone (optional)":null}},{"type":"Feature","geometry":{"type":"Point","coordinates":[4.4027787,51.2189962]},"properties":{"name":"Handyman Antwerpen Groenplaats","street":"Beddenstraat 2/4a","postcode":"2000","city":"Antwerpen","categories":"fill&enjoy ,fill&serve ,fill&go ,waterbars","telephone (optional)":null}},{"type":"Feature","geometry":{"type":"Point","coordinates":[3.3324236,50.9878237]},"properties":{"name":"De Stalen Greep N.V.","street":"Bedevaartstraat 53","postcode":"8700","city":"Tielt","categories":"fill&enjoy ,fill&serve ,fill&go ,waterbars","telephone (optional)":null}},{"type":"Feature","geometry":{"type":"Point","coordinates":[3.2571973,50.8281952]},"properties":{"name":"Kruidenoaze","street":"Beheerstraat 60","postcode":"8500","city":"Kortrijk","categories":"fill&enjoy ,fill&serve ,fill&go ,waterbars","telephone (optional)":null}},{"type":"Feature","geometry":{"type":"Point","coordinates":[3.2887886,50.7775514]},"properties":{"name":"Snoeck Elektro","street":"Bellegemsestraat 100","postcode":"8510","city":"Bellegem","categories":"fill&enjoy ,fill&serve ,fill&go ,waterbars","telephone (optional)":null}},{"type":"Feature","geometry":{"type":"Point","coordinates":[3.2979953,50.7781504]},"properties":{"name":"Selexion Globelservice NV","street":"Bellegemsestraat 253","postcode":"8510","city":"Bellegem","categories":"fill&enjoy ,fill&serve ,fill&go ,waterbars","telephone (optional)":null}},{"type":"Feature","geometry":{"type":"Point","coordinates":[4.0909087,51.1463709]},"properties":{"name":"t'Madeliefje","street":"Belseledorp 75","postcode":"9111","city":"Belsele","categories":"fill&enjoy ,fill&serve ,fill&go ,waterbars","telephone (optional)":null}},{"type":"Feature","geometry":{"type":"Point","coordinates":[4.3058732,50.8291349]},"properties":{"name":"Delhaize","street":"Bergense Steenweg 718","postcode":"1070","city":"Anderlecht","categories":"fill&enjoy ,fill&serve ,fill&go ,waterbars","telephone (optional)":null}},{"type":"Feature","geometry":{"type":"Point","coordinates":[4.2886376,50.8090341]},"properties":{"name":"Krëfel","street":"Bergensesteenweg 1445","postcode":"1070","city":"Anderlecht","categories":"fill&enjoy ,fill&serve ,fill&go ,waterbars","telephone (optional)":null}},{"type":"Feature","geometry":{"type":"Point","coordinates":[4.2874182,50.7967578]},"properties":{"name":"Colruyt","street":"Bergensesteenweg 201","postcode":"1600","city":"Sint-Pieters-Leeuw","categories":"fill&enjoy ,fill&serve ,fill&go ,waterbars","telephone (optional)":null}},{"type":"Feature","geometry":{"type":"Point","coordinates":[4.289193,50.804921]},"properties":{"name":"Media Markt","street":"Bergensesteenweg 65-67","postcode":"1600","city":"St. Pieters Leeuw","categories":"fill&enjoy ,fill&serve ,fill&go ,waterbars","telephone (optional)":null}},{"type":"Feature","geometry":{"type":"Point","coordinates":[4.3024079,50.827735]},"properties":{"name":"Colruyt","street":"Bergensesteenweg 824","postcode":"1070","city":"Anderlecht","categories":"fill&enjoy ,fill&serve ,fill&go ,waterbars","telephone (optional)":null}},{"type":"Feature","geometry":{"type":"Point","coordinates":[4.2320006,50.7323235]},"properties":{"name":"Bio-Planet","street":"Bergensesteenweg 83","postcode":"1500","city":"Halle","categories":"fill&enjoy ,fill&serve ,fill&go ,waterbars","telephone (optional)":null}},{"type":"Feature","geometry":{"type":"Point","coordinates":[4.5732844,50.979545]},"properties":{"name":"Artoos PVBA","street":"Beringstraat 5","postcode":"3190","city":"Boortmeerbeek","categories":"fill&enjoy ,fill&serve ,fill&go ,waterbars","telephone (optional)":null}},{"type":"Feature","geometry":{"type":"Point","coordinates":[4.5794281,51.1286134]},"properties":{"name":"Bio Shop Vitaform","street":"Berlarij 47","postcode":"2500","city":"Lier","categories":"fill&enjoy ,fill&serve ,fill&go ,waterbars","telephone (optional)":null}},{"type":"Feature","geometry":{"type":"Point","coordinates":[3.0918,50.8502502]},"properties":{"name":"Lotus","street":"Beselarestraat 29","postcode":"8658","city":"Dadizele","categories":"fill&enjoy ,fill&serve ,fill&go ,waterbars","telephone (optional)":null}},{"type":"Feature","geometry":{"type":"Point","coordinates":[4.754598,50.994565]},"properties":{"name":"Kadoke NV","street":"Betekomstraat 15","postcode":"3128","city":"Baal","categories":"fill&enjoy ,fill&serve ,fill&go ,waterbars","telephone (optional)":null}},{"type":"Feature","geometry":{"type":"Point","coordinates":[3.7288198,51.0570881]},"properties":{"name":"Maurice Rogge","street":"Bibliotheekstraat 4","postcode":"9000","city":"Gent","categories":"fill&enjoy ,fill&serve ,fill&go ,waterbars","telephone (optional)":null}},{"type":"Feature","geometry":{"type":"Point","coordinates":[4.7103377,50.8240879]},"properties":{"name":"Geysegoms Electro","street":"Bierbeekstraat A2","postcode":"3052","city":"Blanden","categories":"fill&enjoy ,fill&serve ,fill&go ,waterbars","telephone (optional)":null}},{"type":"Feature","geometry":{"type":"Point","coordinates":[3.4269474,50.8744823]},"properties":{"name":"Heemelhof","street":"Bieststraat 72","postcode":"8790","city":"Waregem","categories":"fill&enjoy ,fill&serve ,fill&go ,waterbars","telephone (optional)":null}},{"type":"Feature","geometry":{"type":"Point","coordinates":[4.1446767,51.1008589]},"properties":{"name":"JDC Electronics","street":"Biezestraat 22","postcode":"9220","city":"Hamme","categories":"fill&enjoy ,fill&serve ,fill&go ,waterbars","telephone (optional)":null}},{"type":"Feature","geometry":{"type":"Point","coordinates":[5.3120855,51.2226566]},"properties":{"name":"Krëfel","street":"Binnensingel 46","postcode":"3920","city":"Lommel","categories":"fill&enjoy ,fill&serve ,fill&go ,waterbars","telephone (optional)":null}},{"type":"Feature","geometry":{"type":"Point","coordinates":[4.4472305,51.2303442]},"properties":{"name":"Eldi","street":"Bisschoppenhoflaan 82-84","postcode":"2100","city":"Deurne","categories":"fill&enjoy ,fill&serve ,fill&go ,waterbars","telephone (optional)":null}},{"type":"Feature","geometry":{"type":"Point","coordinates":[4.605664,50.711791]},"properties":{"name":"Carrefour","street":"Bl. de lEurope 3","postcode":"1301","city":"Bierges","categories":"fill&enjoy ,fill&serve ,fill&go ,waterbars","telephone (optional)":null}},{"type":"Feature","geometry":{"type":"Point","coordinates":[4.3692112,51.2185777]},"properties":{"name":"Eldi","street":"Blancefloerlaan 73-75","postcode":"2050","city":"Antwerpen Lo","categories":"fill&enjoy ,fill&serve ,fill&go ,waterbars","telephone (optional)":null}},{"type":"Feature","geometry":{"type":"Point","coordinates":[3.2013237,51.2508351]},"properties":{"name":"Krëfel","street":"Blankenbergsesteenweg 420-05","postcode":"8000","city":"Brugge","categories":"fill&enjoy ,fill&serve ,fill&go ,waterbars","telephone (optional)":null}},{"type":"Feature","geometry":{"type":"Point","coordinates":[3.2028416,51.2299337]},"properties":{"name":"Carrefour","street":"Blankenbergsesteewneg 420-002","postcode":"8000","city":"Brugge","categories":"fill&enjoy ,fill&serve ,fill&go ,waterbars","telephone (optional)":null}},{"type":"Feature","geometry":{"type":"Point","coordinates":[4.9279873,51.0446332]},"properties":{"name":"Het Rozebotteltje","street":"Blaubergsesteenweg 176","postcode":"2230","city":"Herselt","categories":"fill&enjoy ,fill&serve ,fill&go ,waterbars","telephone (optional)":null}},{"type":"Feature","geometry":{"type":"Point","coordinates":[4.9688974,51.3206758]},"properties":{"name":"Colruyt","street":"Blekerijstraat 2","postcode":"2360","city":"Oud-Turnhout","categories":"fill&enjoy ,fill&serve ,fill&go ,waterbars","telephone (optional)":null}},{"type":"Feature","geometry":{"type":"Point","coordinates":[3.5676436,51.1882725]},"properties":{"name":"Van Tornhout","street":"Boelare 116","postcode":"9900","city":"Eeklo","categories":"fill&enjoy ,fill&serve ,fill&go ,waterbars","telephone (optional)":null}},{"type":"Feature","geometry":{"type":"Point","coordinates":[3.5669942,51.1876553]},"properties":{"name":"Natuurvlees Dobbelaere","street":"Boelare 88","postcode":"9990","city":"Eeklo","categories":"fill&enjoy ,fill&serve ,fill&go ,waterbars","telephone (optional)":null}},{"type":"Feature","geometry":{"type":"Point","coordinates":[4.83803,50.9868429]},"properties":{"name":"De Mottebal","street":"Bogaardenstraat 16","postcode":"3200","city":"Aarschot","categories":"fill&enjoy ,fill&serve ,fill&go ,waterbars","telephone (optional)":null}},{"type":"Feature","geometry":{"type":"Point","coordinates":[4.5497551,51.1307071]},"properties":{"name":"Bio-Planet","street":"Boomlaarstraat 309","postcode":"2500","city":"Lier","categories":"fill&enjoy ,fill&serve ,fill&go ,waterbars","telephone (optional)":null}},{"type":"Feature","geometry":{"type":"Point","coordinates":[4.3879438,51.17578]},"properties":{"name":"Delhaize","street":"Boomsesteenweg 176","postcode":"2610","city":"Wilrijk","categories":"fill&enjoy ,fill&serve ,fill&go ,waterbars","telephone (optional)":null}},{"type":"Feature","geometry":{"type":"Point","coordinates":[4.3840043,51.1652668]},"properties":{"name":"Bio-Planet","street":"Boomsesteenweg 524","postcode":"2610","city":"Wilrijk","categories":"fill&enjoy ,fill&serve ,fill&go ,waterbars","telephone (optional)":null}},{"type":"Feature","geometry":{"type":"Point","coordinates":[4.3846559,51.1592319]},"properties":{"name":"Krëfel","street":"Boomsesteenweg 651","postcode":"2610","city":"Wilrijk","categories":"fill&enjoy ,fill&serve ,fill&go ,waterbars","telephone (optional)":null}},{"type":"Feature","geometry":{"type":"Point","coordinates":[4.3831049,51.1581536]},"properties":{"name":"Vanden Borre","street":"Boomsesteenweg 696","postcode":"2610","city":"Wilrijk","categories":"fill&enjoy ,fill&serve ,fill&go ,waterbars","telephone (optional)":null}},{"type":"Feature","geometry":{"type":"Point","coordinates":[4.3821883,51.1550217]},"properties":{"name":"Hubo","street":"Boomsesteenweg 860 2610 Wilrijk","postcode":"2610","city":"Wilrijk","categories":"fill&enjoy ,fill&serve ,fill&go ,waterbars","telephone (optional)":null}},{"type":"Feature","geometry":{"type":"Point","coordinates":[4.3825321,51.1531171]},"properties":{"name":"Vanden Borre","street":"Boomsesteenweg 925","postcode":"2610","city":"Wilrijk","categories":"fill&enjoy ,fill&serve ,fill&go ,waterbars","telephone (optional)":null}},{"type":"Feature","geometry":{"type":"Point","coordinates":[5.4387066,51.2253108]},"properties":{"name":"Bio Shop Klimop","street":"Boseind 25","postcode":"3910","city":"Neerpelt","categories":"fill&enjoy ,fill&serve ,fill&go ,waterbars","telephone (optional)":null}},{"type":"Feature","geometry":{"type":"Point","coordinates":[3.7039199,51.0884516]},"properties":{"name":"Delhaize","street":"Botestraat 14","postcode":"9032","city":"Wondelgem","categories":"fill&enjoy ,fill&serve ,fill&go ,waterbars","telephone (optional)":null}},{"type":"Feature","geometry":{"type":"Point","coordinates":[5.584689,50.6427422]},"properties":{"name":"Colruyt","street":"Boulevard Constitution 32","postcode":"4020","city":"Liège","categories":"fill&enjoy ,fill&serve ,fill&go ,waterbars","telephone (optional)":null}},{"type":"Feature","geometry":{"type":"Point","coordinates":[5.593366,50.6244146]},"properties":{"name":"ViBio","street":"Boulevard Cuivre & Zinc 35","postcode":"4030","city":"Grivegnée","categories":"fill&enjoy ,fill&serve ,fill&go ,waterbars","telephone (optional)":null}},{"type":"Feature","geometry":{"type":"Point","coordinates":[5.8479351,50.5882106]},"properties":{"name":"Krëfel ","street":"Boulevard des Gérardchamps 118","postcode":"4800","city":"Verviers","categories":"fill&enjoy ,fill&serve ,fill&go ,waterbars","telephone (optional)":null}},{"type":"Feature","geometry":{"type":"Point","coordinates":[5.8461823,50.5917176]},"properties":{"name":"Colruyt","street":"Boulevard des Gérardchamps 60","postcode":"4800","city":"Verviers","categories":"fill&enjoy ,fill&serve ,fill&go ,waterbars","telephone (optional)":null}},{"type":"Feature","geometry":{"type":"Point","coordinates":[4.327236,50.5993546]},"properties":{"name":"Electro Chris","street":"Boulevard Fleur de Lys 33","postcode":"1400","city":"Nivelles","categories":"fill&enjoy ,fill&serve ,fill&go ,waterbars","telephone (optional)":null}},{"type":"Feature","geometry":{"type":"Point","coordinates":[4.400018,50.7118316]},"properties":{"name":"Medi-Market","street":"Boulevard Henri Rolin 2","postcode":"1410","city":"Waterloo","categories":"fill&enjoy ,fill&serve ,fill&go ,waterbars","telephone (optional)":null}},{"type":"Feature","geometry":{"type":"Point","coordinates":[4.3989294,50.7116511]},"properties":{"name":"Delhaize","street":"Boulevard Henri Rolin 7","postcode":"1380","city":"Waterloo","categories":"fill&enjoy ,fill&serve ,fill&go ,waterbars","telephone (optional)":null}},{"type":"Feature","geometry":{"type":"Point","coordinates":[5.585992,50.6292]},"properties":{"name":"Krëfel","street":"Boulevard Raymond Poincaré 105","postcode":"4000","city":"Liège","categories":"fill&enjoy ,fill&serve ,fill&go ,waterbars","telephone (optional)":null}},{"type":"Feature","geometry":{"type":"Point","coordinates":[3.4053459,50.6030974]},"properties":{"name":"Delhaize","street":"Boulevard Walter de Marvis 22","postcode":"7500","city":"Tournai","categories":"fill&enjoy ,fill&serve ,fill&go ,waterbars","telephone (optional)":null}},{"type":"Feature","geometry":{"type":"Point","coordinates":[5.6287902,50.6593218]},"properties":{"name":"Colruyt","street":"Boulevard Zenobe Gramme 17","postcode":"4040","city":"Herstal","categories":"fill&enjoy ,fill&serve ,fill&go ,waterbars","telephone (optional)":null}},{"type":"Feature","geometry":{"type":"Point","coordinates":[4.3480524,50.8526259]},"properties":{"name":"Färm","street":"Brandhoutkaai 43","postcode":"1000","city":"Bruxelles","categories":"fill&enjoy ,fill&serve ,fill&go ,waterbars","telephone (optional)":null}},{"type":"Feature","geometry":{"type":"Point","coordinates":[4.5195699,51.3215759]},"properties":{"name":"Electro Quirijnen","street":"Bredabaan 1007","postcode":"2930","city":"Brasschaat","categories":"fill&enjoy ,fill&serve ,fill&go ,waterbars","telephone (optional)":null}},{"type":"Feature","geometry":{"type":"Point","coordinates":[4.4643572,51.2636542]},"properties":{"name":"Krëfel","street":"Bredabaan 1205","postcode":"2900","city":"Schoten","categories":"fill&enjoy ,fill&serve ,fill&go ,waterbars","telephone (optional)":null}},{"type":"Feature","geometry":{"type":"Point","coordinates":[4.4643572,51.2636542]},"properties":{"name":"Krëfel","street":"Bredabaan 1205","postcode":"2900","city":"Schoten","categories":"fill&enjoy ,fill&serve ,fill&go ,waterbars","telephone (optional)":null}},{"type":"Feature","geometry":{"type":"Point","coordinates":[4.4636779,51.2679601]},"properties":{"name":"Media Markt Schoten","street":"Bredabaan 1305","postcode":"2900","city":"Schoten","categories":"fill&enjoy ,fill&serve ,fill&go ,waterbars","telephone (optional)":null}},{"type":"Feature","geometry":{"type":"Point","coordinates":[4.488181,51.2884298]},"properties":{"name":"Delhaize","street":"Bredabaan 196","postcode":"2930","city":"Brasschaat","categories":"fill&enjoy ,fill&serve ,fill&go ,waterbars","telephone (optional)":null}},{"type":"Feature","geometry":{"type":"Point","coordinates":[4.4943152,51.2925703]},"properties":{"name":"Orlans Electro","street":"Bredabaan 352","postcode":"2930","city":"Brasschaat","categories":"fill&enjoy ,fill&serve ,fill&go ,waterbars","telephone (optional)":null}},{"type":"Feature","geometry":{"type":"Point","coordinates":[4.4623898,51.254986]},"properties":{"name":"Vanden Borre","street":"Bredabaan 891-893","postcode":"2170","city":"Merksem","categories":"fill&enjoy ,fill&serve ,fill&go ,waterbars","telephone (optional)":null}},{"type":"Feature","geometry":{"type":"Point","coordinates":[4.4648011,51.2583276]},"properties":{"name":"Carrefour","street":"Bredabaan 967","postcode":"2900","city":"Schoten","categories":"fill&enjoy ,fill&serve ,fill&go ,waterbars","telephone (optional)":null}},{"type":"Feature","geometry":{"type":"Point","coordinates":[4.4648011,51.2583276]},"properties":{"name":"Handyman","street":"Bredabaan 967","postcode":"2900","city":"Schoten","categories":"fill&enjoy ,fill&serve ,fill&go ,waterbars","telephone (optional)":null}},{"type":"Feature","geometry":{"type":"Point","coordinates":[4.4626447,51.2650637]},"properties":{"name":"Vanden Borre","street":"Bredabaan 974","postcode":"2170","city":"Merksem","categories":"fill&enjoy ,fill&serve ,fill&go ,waterbars","telephone (optional)":null}},{"type":"Feature","geometry":{"type":"Point","coordinates":[4.3948327,51.2042891]},"properties":{"name":"Terrasana","street":"Brederodestraat 101","postcode":"2000","city":"Antwerpen","categories":"fill&enjoy ,fill&serve ,fill&go ,waterbars","telephone (optional)":null}},{"type":"Feature","geometry":{"type":"Point","coordinates":[5.734733,51.145501]},"properties":{"name":"VDS Electronics","street":"Breeërsteenweg 321","postcode":"3640","city":"Kinrooi","categories":"fill&enjoy ,fill&serve ,fill&go ,waterbars","telephone (optional)":null}},{"type":"Feature","geometry":{"type":"Point","coordinates":[5.6947025,50.9481247]},"properties":{"name":"Megro NV","street":"Breitwaterstraat 3","postcode":"3630","city":"Maasmechelen","categories":"fill&enjoy ,fill&serve ,fill&go ,waterbars","telephone (optional)":null}},{"type":"Feature","geometry":{"type":"Point","coordinates":[3.0666641,50.8903133]},"properties":{"name":"Het Vlasbloempje","street":"Breulstraat 50","postcode":"8890","city":"Moorslede","categories":"fill&enjoy ,fill&serve ,fill&go ,waterbars","telephone (optional)":null}},{"type":"Feature","geometry":{"type":"Point","coordinates":[3.4411191,51.0986133]},"properties":{"name":"Eldi","street":"Brielstraat 2","postcode":"9880","city":"Aalter","categories":"fill&enjoy ,fill&serve ,fill&go ,waterbars","telephone (optional)":null}},{"type":"Feature","geometry":{"type":"Point","coordinates":[3.6581297,50.93146]},"properties":{"name":"De Graeve","street":"Broeckstraat 33","postcode":"9890","city":"Gavere","categories":"fill&enjoy ,fill&serve ,fill&go ,waterbars","telephone (optional)":null}},{"type":"Feature","geometry":{"type":"Point","coordinates":[3.6581297,50.93146]},"properties":{"name":"Indeed","street":"Broeckstraat 33","postcode":"9890","city":"Gavere","categories":"fill&enjoy ,fill&serve ,fill&go ,waterbars","telephone (optional)":null}},{"type":"Feature","geometry":{"type":"Point","coordinates":[4.0235179,50.8325288]},"properties":{"name":"Gezondheidswinkel","street":"Bruchtdam 7","postcode":"9400","city":"Ninove","categories":"fill&enjoy ,fill&serve ,fill&go ,waterbars","telephone (optional)":null}},{"type":"Feature","geometry":{"type":"Point","coordinates":[2.959932,50.92044]},"properties":{"name":"Interieur Seys","street":"Bruggestraat 1","postcode":"8920","city":"Poelkapelle","categories":"fill&enjoy ,fill&serve ,fill&go ,waterbars","telephone (optional)":null}},{"type":"Feature","geometry":{"type":"Point","coordinates":[3.2532347,50.9274583]},"properties":{"name":"Hibiscus","street":"Bruggestraat 148","postcode":"8770","city":"Ingelmunster","categories":"fill&enjoy ,fill&serve ,fill&go ,waterbars","telephone (optional)":null}},{"type":"Feature","geometry":{"type":"Point","coordinates":[3.1218618,50.7973596]},"properties":{"name":"De korenbloem ","street":"Bruggestraat 36","postcode":"8930","city":"Menen","categories":"fill&enjoy ,fill&serve ,fill&go ,waterbars","telephone (optional)":null}},{"type":"Feature","geometry":{"type":"Point","coordinates":[3.1431274,51.3035658]},"properties":{"name":"Electro Vanbesien J. BVBA","street":"Brugsesteenweg 2","postcode":"8370","city":"Blankenberge","categories":"fill&enjoy ,fill&serve ,fill&go ,waterbars","telephone (optional)":null}},{"type":"Feature","geometry":{"type":"Point","coordinates":[3.234413,51.01284]},"properties":{"name":"Multi Bazar","street":"Brugsesteenweg 201","postcode":"8740","city":"Egem","categories":"fill&enjoy ,fill&serve ,fill&go ,waterbars","telephone (optional)":null}},{"type":"Feature","geometry":{"type":"Point","coordinates":[3.694341,51.063852]},"properties":{"name":"Kookwinkel Ria Snoeck","street":"Brugsesteenweg 21","postcode":"9000","city":"Gent","categories":"fill&enjoy ,fill&serve ,fill&go ,waterbars","telephone (optional)":null}},{"type":"Feature","geometry":{"type":"Point","coordinates":[3.5520297,51.1909451]},"properties":{"name":"Delhaize","street":"Brugsesteenweg 23","postcode":"9900","city":"Eeklo","categories":"fill&enjoy ,fill&serve ,fill&go ,waterbars","telephone (optional)":null}},{"type":"Feature","geometry":{"type":"Point","coordinates":[3.6806056,51.0740875]},"properties":{"name":"Eldi","street":"Brugsesteenweg 265","postcode":"9030","city":"Mariakerke","categories":"fill&enjoy ,fill&serve ,fill&go ,waterbars","telephone (optional)":null}},{"type":"Feature","geometry":{"type":"Point","coordinates":[3.1198587,50.964146]},"properties":{"name":"Vanden Borre","street":"Brugsesteenweg 357","postcode":"8800","city":"Roeselare","categories":"fill&enjoy ,fill&serve ,fill&go ,waterbars","telephone (optional)":null}},{"type":"Feature","geometry":{"type":"Point","coordinates":[2.9711525,51.2204017]},"properties":{"name":"Eldi","street":"Brugsesteenweg 37","postcode":"8450","city":"Bredene","categories":"fill&enjoy ,fill&serve ,fill&go ,waterbars","telephone (optional)":null}},{"type":"Feature","geometry":{"type":"Point","coordinates":[3.3058618,51.204796]},"properties":{"name":"Aeon","street":"Brugsesteenweg 38A","postcode":"8340","city":"Sijsele","categories":"fill&enjoy ,fill&serve ,fill&go ,waterbars","telephone (optional)":null}},{"type":"Feature","geometry":{"type":"Point","coordinates":[3.1186501,50.9693345]},"properties":{"name":"Media Markt Roeselare","street":"Brugsesteenweg 435-439","postcode":"8800","city":"Roeselare","categories":"fill&enjoy ,fill&serve ,fill&go ,waterbars","telephone (optional)":null}},{"type":"Feature","geometry":{"type":"Point","coordinates":[3.270502,50.8917627]},"properties":{"name":"Supra Bazar","street":"Brugsesteenweg 44","postcode":"8531","city":"Hulste","categories":"fill&enjoy ,fill&serve ,fill&go ,waterbars","telephone (optional)":null}},{"type":"Feature","geometry":{"type":"Point","coordinates":[3.1188482,50.9696085]},"properties":{"name":"Bio-Planet","street":"Brugsesteenweg 443","postcode":"8800","city":"Roeselare","categories":"fill&enjoy ,fill&serve ,fill&go ,waterbars","telephone (optional)":null}},{"type":"Feature","geometry":{"type":"Point","coordinates":[3.6825278,51.0700484]},"properties":{"name":"ART & CRAFT ","street":"Brugsesteenweg 456","postcode":"9030","city":"Mariakerke","categories":"fill&enjoy ,fill&serve ,fill&go ,waterbars","telephone (optional)":null}},{"type":"Feature","geometry":{"type":"Point","coordinates":[3.2620226,50.8373592]},"properties":{"name":"Bio-Planet","street":"Brugsesteenweg 65","postcode":"8500","city":"Kortrijk","categories":"fill&enjoy ,fill&serve ,fill&go ,waterbars","telephone (optional)":null}},{"type":"Feature","geometry":{"type":"Point","coordinates":[3.2941773,50.8822775]},"properties":{"name":"Vandenbussche","street":"Brugsestraat 14","postcode":"8531","city":"Hulste","categories":"fill&enjoy ,fill&serve ,fill&go ,waterbars","telephone (optional)":null}},{"type":"Feature","geometry":{"type":"Point","coordinates":[3.09164,51.1194196]},"properties":{"name":"Biorijke","street":"Brugsestraat 19","postcode":"8211","city":"Aartrijke","categories":"fill&enjoy ,fill&serve ,fill&go ,waterbars","telephone (optional)":null}},{"type":"Feature","geometry":{"type":"Point","coordinates":[2.8917254,50.8588899]},"properties":{"name":"De Muyt","street":"Brugseweg 93-95","postcode":"8900","city":"Ieper","categories":"fill&enjoy ,fill&serve ,fill&go ,waterbars","telephone (optional)":null}},{"type":"Feature","geometry":{"type":"Point","coordinates":[4.0352882,51.2013533]},"properties":{"name":"Vandevelde","street":"Brugstraat 21","postcode":"9190","city":"Stekene","categories":"fill&enjoy ,fill&serve ,fill&go ,waterbars","telephone (optional)":null}},{"type":"Feature","geometry":{"type":"Point","coordinates":[4.008666,51.008788]},"properties":{"name":"Ami BVBA (alvo)","street":"Brugstraat 46","postcode":"9290","city":"Berlare","categories":"fill&enjoy ,fill&serve ,fill&go ,waterbars","telephone (optional)":null}},{"type":"Feature","geometry":{"type":"Point","coordinates":[3.4416767,51.097342]},"properties":{"name":"Selexion Huys Elektro","street":"Brugstraat 83","postcode":"9880","city":"Aalter","categories":"fill&enjoy ,fill&serve ,fill&go ,waterbars","telephone (optional)":null}},{"type":"Feature","geometry":{"type":"Point","coordinates":[4.0681532,50.9255377]},"properties":{"name":"Jean Jongen PVBA","street":"Brusselbaan 48 B","postcode":"9320","city":"Erembodegem","categories":"fill&enjoy ,fill&serve ,fill&go ,waterbars","telephone (optional)":null}},{"type":"Feature","geometry":{"type":"Point","coordinates":[3.7557509,51.0344284]},"properties":{"name":"Eldi","street":"Brusselse Steenweg 429-43","postcode":"9050","city":"Gentbrugge","categories":"fill&enjoy ,fill&serve ,fill&go ,waterbars","telephone (optional)":null}},{"type":"Feature","geometry":{"type":"Point","coordinates":[4.2137357,50.9029157]},"properties":{"name":"Delhaize","street":"Brusselsesteenweg 105","postcode":"1730","city":"Asse","categories":"fill&enjoy ,fill&serve ,fill&go ,waterbars","telephone (optional)":null}},{"type":"Feature","geometry":{"type":"Point","coordinates":[4.1283573,50.9999064]},"properties":{"name":"Botanik","street":"Brusselsesteenweg 12","postcode":"9280","city":"Lebbeke","categories":"fill&enjoy ,fill&serve ,fill&go ,waterbars","telephone (optional)":null}},{"type":"Feature","geometry":{"type":"Point","coordinates":[4.03463,50.829001]},"properties":{"name":"Vanden Borre","street":"Brusselsesteenweg 208","postcode":"9400","city":"Ninove","categories":"fill&enjoy ,fill&serve ,fill&go ,waterbars","telephone (optional)":null}},{"type":"Feature","geometry":{"type":"Point","coordinates":[4.5138987,50.781132]},"properties":{"name":"Origin'O","street":"Brusselsesteenweg 310","postcode":"3090","city":"Overijse","categories":"fill&enjoy ,fill&serve ,fill&go ,waterbars","telephone (optional)":null}},{"type":"Feature","geometry":{"type":"Point","coordinates":[4.6720828,50.8861431]},"properties":{"name":"Eldi","street":"Brusselsesteenweg 4","postcode":"3020","city":"Herent","categories":"fill&enjoy ,fill&serve ,fill&go ,waterbars","telephone (optional)":null}},{"type":"Feature","geometry":{"type":"Point","coordinates":[3.7760663,51.022192]},"properties":{"name":"Elektro Vanneste","street":"Brusselsesteenweg 44","postcode":"9090","city":"Melle","categories":"fill&enjoy ,fill&serve ,fill&go ,waterbars","telephone (optional)":null}},{"type":"Feature","geometry":{"type":"Point","coordinates":[4.0533066,50.8299049]},"properties":{"name":"Selexion Van Hamme Elektro","street":"Brusselsesteenweg 440","postcode":"9402","city":"Meerbeke","categories":"fill&enjoy ,fill&serve ,fill&go ,waterbars","telephone (optional)":null}},{"type":"Feature","geometry":{"type":"Point","coordinates":[4.474488,50.9944924]},"properties":{"name":"Krëfel","street":"Brusselsesteenweg 449","postcode":"2800","city":"Mechelen","categories":"fill&enjoy ,fill&serve ,fill&go ,waterbars","telephone (optional)":null}},{"type":"Feature","geometry":{"type":"Point","coordinates":[4.4940361,50.7892514]},"properties":{"name":"Krëfel","street":"Brusselsesteenweg 492","postcode":"3090","city":"Overijse","categories":"fill&enjoy ,fill&serve ,fill&go ,waterbars","telephone (optional)":null}},{"type":"Feature","geometry":{"type":"Point","coordinates":[4.6940835,50.8806821]},"properties":{"name":"BRiCO City Leuven","street":"Brusselsestraat 130-132","postcode":"3000","city":"Leuven","categories":"fill&enjoy ,fill&serve ,fill&go ,waterbars","telephone (optional)":null}},{"type":"Feature","geometry":{"type":"Point","coordinates":[4.474352,50.995431]},"properties":{"name":"Vanden Borre","street":"Brusselsteenweg 441 A","postcode":"2800","city":"Mechelen (Zemst)","categories":"fill&enjoy ,fill&serve ,fill&go ,waterbars","telephone (optional)":null}},{"type":"Feature","geometry":{"type":"Point","coordinates":[4.3542539,50.844582]},"properties":{"name":"Impens Elektro BVBA","street":"Brusselstw 37","postcode":"9090","city":"Melle","categories":"fill&enjoy ,fill&serve ,fill&go ,waterbars","telephone (optional)":null}},{"type":"Feature","geometry":{"type":"Point","coordinates":[4.3159454,51.1769338]},"properties":{"name":"Het Madeliefje","street":"Burchtstraat 14","postcode":"9150","city":"Kruibeke","categories":"fill&enjoy ,fill&serve ,fill&go ,waterbars","telephone (optional)":null}},{"type":"Feature","geometry":{"type":"Point","coordinates":[3.7148663,51.056256]},"properties":{"name":"Tavontuur","street":"Burgstraat 137","postcode":"9000","city":"Gent","categories":"fill&enjoy ,fill&serve ,fill&go ,waterbars","telephone (optional)":null}},{"type":"Feature","geometry":{"type":"Point","coordinates":[3.718035,51.0565234]},"properties":{"name":"Revogan - Gravensteen NV","street":"Burgstraat 28","postcode":"9000","city":"Gent","categories":"fill&enjoy ,fill&serve ,fill&go ,waterbars","telephone (optional)":null}},{"type":"Feature","geometry":{"type":"Point","coordinates":[3.4779294,50.8337481]},"properties":{"name":"t'Kruiske","street":"Buyckstraat 2","postcode":"8570","city":"Anzegem","categories":"fill&enjoy ,fill&serve ,fill&go ,waterbars","telephone (optional)":null}},{"type":"Feature","geometry":{"type":"Point","coordinates":[4.4257236,50.8141563]},"properties":{"name":"Carrefour","street":"Bv.du Souverain 240","postcode":"1160","city":"Auderghem","categories":"fill&enjoy ,fill&serve ,fill&go ,waterbars","telephone (optional)":null}},{"type":"Feature","geometry":{"type":"Point","coordinates":[4.3963671,50.3689365]},"properties":{"name":"Rolin Willy Ets.","street":"Carrefour du Tilleul","postcode":"5574","city":"Pondrome","categories":"fill&enjoy ,fill&serve ,fill&go ,waterbars","telephone (optional)":null}},{"type":"Feature","geometry":{"type":"Point","coordinates":[3.586205,50.7459018]},"properties":{"name":"Vanden Borre","street":"Ceasar Snoecklaan 29","postcode":"9600","city":"Ronse","categories":"fill&enjoy ,fill&serve ,fill&go ,waterbars","telephone (optional)":null}},{"type":"Feature","geometry":{"type":"Point","coordinates":[4.519522,50.711012]},"properties":{"name":"Vanden Borre","street":"Centre Commercial Kennedy","postcode":"1348","city":"Louvain-la-Neuve","categories":"fill&enjoy ,fill&serve ,fill&go ,waterbars","telephone (optional)":null}},{"type":"Feature","geometry":{"type":"Point","coordinates":[4.6168453,50.6710893]},"properties":{"name":"Autre Chose","street":"Centre Commercial LEsplanade Place de lAcceuil","postcode":"1330","city":"Rixensart","categories":"fill&enjoy ,fill&serve ,fill&go ,waterbars","telephone (optional)":null}},{"type":"Feature","geometry":{"type":"Point","coordinates":[3.4711358,50.9307828]},"properties":{"name":"Vernackt Elektro","street":"Centrumstraat 119","postcode":"9870","city":"Olsene","categories":"fill&enjoy ,fill&serve ,fill&go ,waterbars","telephone (optional)":null}},{"type":"Feature","geometry":{"type":"Point","coordinates":[4.4189804,51.2171982]},"properties":{"name":"Media Markt Century Center","street":"Century Center Keyzerlei 58-60","postcode":"2018","city":"Antwerpen","categories":"fill&enjoy ,fill&serve ,fill&go ,waterbars","telephone (optional)":null}},{"type":"Feature","geometry":{"type":"Point","coordinates":[3.5861241,50.7462446]},"properties":{"name":"Krëfel","street":"Cesar Snoecklaan 53","postcode":"9600","city":"Ronse","categories":"fill&enjoy ,fill&serve ,fill&go ,waterbars","telephone (optional)":null}},{"type":"Feature","geometry":{"type":"Point","coordinates":[3.7256369,51.0387636]},"properties":{"name":"Bio Shop Gent","street":"Charles de Kerckhovenlaan 423","postcode":"9000","city":"Gent","categories":"fill&enjoy ,fill&serve ,fill&go ,waterbars","telephone (optional)":null}},{"type":"Feature","geometry":{"type":"Point","coordinates":[4.2674566,50.4586823]},"properties":{"name":"Delhaize","street":"Chaussée Brunehault 500","postcode":"7140","city":"Morlanwelz","categories":"fill&enjoy ,fill&serve ,fill&go ,waterbars","telephone (optional)":null}},{"type":"Feature","geometry":{"type":"Point","coordinates":[4.363693,50.6972828]},"properties":{"name":"Colruyt","street":"Chaussée dAlsemberg 437","postcode":"1420","city":"Braine-l'Alleud","categories":"fill&enjoy ,fill&serve ,fill&go ,waterbars","telephone (optional)":null}},{"type":"Feature","geometry":{"type":"Point","coordinates":[4.363693,50.6972828]},"properties":{"name":"Bio-Planet","street":"Chaussée dAlsenberg 437","postcode":"1420","city":"Braine-L'Alleud","categories":"fill&enjoy ,fill&serve ,fill&go ,waterbars","telephone (optional)":null}},{"type":"Feature","geometry":{"type":"Point","coordinates":[3.9768469,50.4522306]},"properties":{"name":"Thym Frais (Le)","street":"Chaussée de Binche 123","postcode":"1030","city":"Schaarbeek","categories":"fill&enjoy ,fill&serve ,fill&go ,waterbars","telephone (optional)":null}},{"type":"Feature","geometry":{"type":"Point","coordinates":[3.7890732,50.6340169]},"properties":{"name":"Vegetaria","street":"Chaussée de Bruxelles 116","postcode":"1030","city":"Schaarbeek","categories":"fill&enjoy ,fill&serve ,fill&go ,waterbars","telephone (optional)":null}},{"type":"Feature","geometry":{"type":"Point","coordinates":[4.3361374,50.6103227]},"properties":{"name":"Dolma","street":"Chaussée de Bruxelles 170","postcode":"1050","city":"Ixelles","categories":"fill&enjoy ,fill&serve ,fill&go ,waterbars","telephone (optional)":null}},{"type":"Feature","geometry":{"type":"Point","coordinates":[4.4366909,50.4433512]},"properties":{"name":"Handyman","street":"Chaussée de Bruxelles 233","postcode":"1050","city":"Ixelles","categories":"fill&enjoy ,fill&serve ,fill&go ,waterbars","telephone (optional)":null}},{"type":"Feature","geometry":{"type":"Point","coordinates":[4.4016846,50.7084864]},"properties":{"name":"Colruyt","street":"Chaussée de Bruxelles 305","postcode":"7000","city":"Mons","categories":"fill&enjoy ,fill&serve ,fill&go ,waterbars","telephone (optional)":null}},{"type":"Feature","geometry":{"type":"Point","coordinates":[4.3986676,50.7249504]},"properties":{"name":"Colruyt","street":"Chaussée de Bruxelles 63","postcode":"7800","city":"Ath","categories":"fill&enjoy ,fill&serve ,fill&go ,waterbars","telephone (optional)":null}},{"type":"Feature","geometry":{"type":"Point","coordinates":[4.4027408,50.6946448]},"properties":{"name":"Colruyt","street":"Chaussée de Bruxelles 684","postcode":"1400","city":"Nivelles","categories":"fill&enjoy ,fill&serve ,fill&go ,waterbars","telephone (optional)":null}},{"type":"Feature","geometry":{"type":"Point","coordinates":[4.4583545,50.6021876]},"properties":{"name":"Colruyt","street":"Chaussée de Bruxelles 6a","postcode":"6020","city":"Dampremey","categories":"fill&enjoy ,fill&serve ,fill&go ,waterbars","telephone (optional)":null}},{"type":"Feature","geometry":{"type":"Point","coordinates":[4.8587656,50.7139022]},"properties":{"name":"Krëfel","street":"Chaussee de Charleroi 103","postcode":"1410","city":"Waterloo","categories":"fill&enjoy ,fill&serve ,fill&go ,waterbars","telephone (optional)":null}},{"type":"Feature","geometry":{"type":"Point","coordinates":[4.8439105,50.4630711]},"properties":{"name":"Colruyt","street":"Chaussée de Charleroi 16","postcode":"1410","city":"Waterloo","categories":"fill&enjoy ,fill&serve ,fill&go ,waterbars","telephone (optional)":null}},{"type":"Feature","geometry":{"type":"Point","coordinates":[4.4078792,50.6870308]},"properties":{"name":"Séquoia","street":"Chaussée de Charleroi 18","postcode":"1410","city":"Waterloo","categories":"fill&enjoy ,fill&serve ,fill&go ,waterbars","telephone (optional)":null}},{"type":"Feature","geometry":{"type":"Point","coordinates":[4.4078792,50.6870308]},"properties":{"name":"Bioooh !","street":"Chaussée de Charleroi 18 A","postcode":"1470","city":"Genappe","categories":"fill&enjoy ,fill&serve ,fill&go ,waterbars","telephone (optional)":null}},{"type":"Feature","geometry":{"type":"Point","coordinates":[4.781971,50.637268]},"properties":{"name":"Papier Ets.","street":"Chaussée de Charleroi 31/a","postcode":"1370","city":"Jodoigne","categories":"fill&enjoy ,fill&serve ,fill&go ,waterbars","telephone (optional)":null}},{"type":"Feature","geometry":{"type":"Point","coordinates":[4.6427898,50.4555406]},"properties":{"name":"Colruyt","street":"Chaussée de Charleroi 39","postcode":"5000","city":"Namur","categories":"fill&enjoy ,fill&serve ,fill&go ,waterbars","telephone (optional)":null}},{"type":"Feature","geometry":{"type":"Point","coordinates":[4.4109644,50.6891534]},"properties":{"name":"Media Markt","street":"Chaussée de Charleroi 579","postcode":"1420","city":"Braine l'Alleud ","categories":"fill&enjoy ,fill&serve ,fill&go ,waterbars","telephone (optional)":null}},{"type":"Feature","geometry":{"type":"Point","coordinates":[4.4779409,50.4213115]},"properties":{"name":"Mr. Bricolage","street":"Chaussée de Charleroi 61","postcode":"1420","city":"Braine l'Alleud ","categories":"fill&enjoy ,fill&serve ,fill&go ,waterbars","telephone (optional)":null}},{"type":"Feature","geometry":{"type":"Point","coordinates":[4.321156,50.0468917]},"properties":{"name":"Colruyt","street":"Chaussée de Couvin 38","postcode":"5190","city":"Jemeppe-sur-Sambre","categories":"fill&enjoy ,fill&serve ,fill&go ,waterbars","telephone (optional)":null}},{"type":"Feature","geometry":{"type":"Point","coordinates":[5.2181089,50.5222812]},"properties":{"name":"Carrefour","street":"Chaussée de Dinant 5","postcode":"1410","city":"Monst St Jean","categories":"fill&enjoy ,fill&serve ,fill&go ,waterbars","telephone (optional)":null}},{"type":"Feature","geometry":{"type":"Point","coordinates":[3.8312907,50.7202459]},"properties":{"name":"Colruyt","street":"Chaussée de Grammont 26","postcode":"6060","city":"Gilly","categories":"fill&enjoy ,fill&serve ,fill&go ,waterbars","telephone (optional)":null}},{"type":"Feature","geometry":{"type":"Point","coordinates":[5.7288854,50.0199854]},"properties":{"name":"Bio'K","street":"Chaussée de Houffalize","postcode":"1360","city":"Thorembais-St-Trond","categories":"fill&enjoy ,fill&serve ,fill&go ,waterbars","telephone (optional)":null}},{"type":"Feature","geometry":{"type":"Point","coordinates":[4.6987921,50.6800451]},"properties":{"name":"Tournesol","street":"Chaussée de Huy 312","postcode":"6460","city":"Chimay","categories":"fill&enjoy ,fill&serve ,fill&go ,waterbars","telephone (optional)":null}},{"type":"Feature","geometry":{"type":"Point","coordinates":[4.2161831,50.4727748]},"properties":{"name":"Colruyt","street":"Chaussee de Jolimont 186","postcode":"4500","city":"Ben-Ahin","categories":"fill&enjoy ,fill&serve ,fill&go ,waterbars","telephone (optional)":null}},{"type":"Feature","geometry":{"type":"Point","coordinates":[4.689639,50.740712]},"properties":{"name":"Delhaize","street":"Chaussée de la Libération 53","postcode":"7860","city":"Lessines","categories":"fill&enjoy ,fill&serve ,fill&go ,waterbars","telephone (optional)":null}},{"type":"Feature","geometry":{"type":"Point","coordinates":[4.618898,50.717042]},"properties":{"name":"Colruyt","street":"Chaussée de Louvain 126","postcode":"6600","city":"Bastogne","categories":"fill&enjoy ,fill&serve ,fill&go ,waterbars","telephone (optional)":null}},{"type":"Feature","geometry":{"type":"Point","coordinates":[4.3773024,50.8500015]},"properties":{"name":"Elektroplanit","street":"Chaussee de Louvain 135","postcode":"1325","city":"Gistoux","categories":"fill&enjoy ,fill&serve ,fill&go ,waterbars","telephone (optional)":null}},{"type":"Feature","geometry":{"type":"Point","coordinates":[4.6228307,50.7182227]},"properties":{"name":"Biocentre","street":"Chaussee de Louvain 232","postcode":"7100","city":"La Louvière","categories":"fill&enjoy ,fill&serve ,fill&go ,waterbars","telephone (optional)":null}},{"type":"Feature","geometry":{"type":"Point","coordinates":[4.8794452,50.4780834]},"properties":{"name":"Natura Grez","street":"Chaussée de Louvain 336","postcode":"1390","city":"Grez Doiceau","categories":"fill&enjoy ,fill&serve ,fill&go ,waterbars","telephone (optional)":null}},{"type":"Feature","geometry":{"type":"Point","coordinates":[4.3999954,50.8549617]},"properties":{"name":"Delhaize","street":"Chaussée de Louvain 610-640","postcode":"1300","city":"Wavre","categories":"fill&enjoy ,fill&serve ,fill&go ,waterbars","telephone (optional)":null}},{"type":"Feature","geometry":{"type":"Point","coordinates":[4.8984179,50.5114751]},"properties":{"name":"Pièces Elctro","street":"Chaussée de Louvain 923","postcode":"1210","city":"St. Josse","categories":"fill&enjoy ,fill&serve ,fill&go ,waterbars","telephone (optional)":null}},{"type":"Feature","geometry":{"type":"Point","coordinates":[4.9005954,50.4453516]},"properties":{"name":"Espace des Détachées","street":"Chaussée de Marche 499","postcode":"1300","city":"Wavre","categories":"fill&enjoy ,fill&serve ,fill&go ,waterbars","telephone (optional)":null}},{"type":"Feature","geometry":{"type":"Point","coordinates":[4.9041752,50.441881]},"properties":{"name":"Delhaize","street":"Chaussée de Marche 570","postcode":"5004","city":"Bouge","categories":"fill&enjoy ,fill&serve ,fill&go ,waterbars","telephone (optional)":null}},{"type":"Feature","geometry":{"type":"Point","coordinates":[4.9419379,50.4174466]},"properties":{"name":"Vanden Borre","street":"Chaussée de Marche 940","postcode":"1030","city":"Bruxelles","categories":"fill&enjoy ,fill&serve ,fill&go ,waterbars","telephone (optional)":null}},{"type":"Feature","geometry":{"type":"Point","coordinates":[4.2340995,50.4592661]},"properties":{"name":"Electro Mosan","street":"Chaussée de Mariemont 36","postcode":"5022","city":"Cognelée","categories":"fill&enjoy ,fill&serve ,fill&go ,waterbars","telephone (optional)":null}},{"type":"Feature","geometry":{"type":"Point","coordinates":[4.3097151,50.5885839]},"properties":{"name":"Biocap","street":"Chaussée de Mons 16","postcode":"5101","city":"Erpent","categories":"fill&enjoy ,fill&serve ,fill&go ,waterbars","telephone (optional)":null}},{"type":"Feature","geometry":{"type":"Point","coordinates":[4.2396263,50.4076246]},"properties":{"name":"Krëfel ","street":"Chaussée de Mons 298","postcode":"5101","city":"Erpent","categories":"fill&enjoy ,fill&serve ,fill&go ,waterbars","telephone (optional)":null}},{"type":"Feature","geometry":{"type":"Point","coordinates":[4.3074255,50.8300354]},"properties":{"name":"D'Ici","street":"Chaussee de Mons 737","postcode":"5100","city":"Erpent","categories":"fill&enjoy ,fill&serve ,fill&go ,waterbars","telephone (optional)":null}},{"type":"Feature","geometry":{"type":"Point","coordinates":[4.707824,50.5527927]},"properties":{"name":"Colruyt","street":"Chaussée de Namur 130b","postcode":"7140","city":"Morlanwelz","categories":"fill&enjoy ,fill&serve ,fill&go ,waterbars","telephone (optional)":null}},{"type":"Feature","geometry":{"type":"Point","coordinates":[4.6152351,50.6950336]},"properties":{"name":"Delhaize","street":"Chaussée de Namur 223","postcode":"1400","city":"Nivelles","categories":"fill&enjoy ,fill&serve ,fill&go ,waterbars","telephone (optional)":null}},{"type":"Feature","geometry":{"type":"Point","coordinates":[4.5489274,50.5360206]},"properties":{"name":"Krëfel","street":"Chaussée de Namur 264","postcode":"6150","city":"Anderlues","categories":"fill&enjoy ,fill&serve ,fill&go ,waterbars","telephone (optional)":null}},{"type":"Feature","geometry":{"type":"Point","coordinates":[4.3539734,50.5990321]},"properties":{"name":"Mister Pièces","street":"Chaussée de Namur 55","postcode":"1070","city":"Anderlecht","categories":"fill&enjoy ,fill&serve ,fill&go ,waterbars","telephone (optional)":null}},{"type":"Feature","geometry":{"type":"Point","coordinates":[4.3560791,50.5986845]},"properties":{"name":"Séquoia","street":"Chaussée de Namur 59","postcode":"1300","city":"Wavre","categories":"fill&enjoy ,fill&serve ,fill&go ,waterbars","telephone (optional)":null}},{"type":"Feature","geometry":{"type":"Point","coordinates":[4.3563008,50.5981226]},"properties":{"name":"Colruyt","street":"Chaussée de Namur 61","postcode":"1495","city":"Marbais","categories":"fill&enjoy ,fill&serve ,fill&go ,waterbars","telephone (optional)":null}},{"type":"Feature","geometry":{"type":"Point","coordinates":[4.4623082,50.3865044]},"properties":{"name":"Vanden Borre","street":"Chaussée de Philippeville 236","postcode":"1400","city":"Nivelles","categories":"fill&enjoy ,fill&serve ,fill&go ,waterbars","telephone (optional)":null}},{"type":"Feature","geometry":{"type":"Point","coordinates":[4.2099367,50.466372]},"properties":{"name":"Mr. Bricolage","street":"Chaussée de Redemont 21","postcode":"1400","city":"Nivelles","categories":"fill&enjoy ,fill&serve ,fill&go ,waterbars","telephone (optional)":null}},{"type":"Feature","geometry":{"type":"Point","coordinates":[3.4074446,50.6141362]},"properties":{"name":"Vert de Terre","street":"Chaussée de Renaix 89","postcode":"5030","city":"Gembloux","categories":"fill&enjoy ,fill&serve ,fill&go ,waterbars","telephone (optional)":null}},{"type":"Feature","geometry":{"type":"Point","coordinates":[3.9830647,50.4567004]},"properties":{"name":"Bio-Planet","street":"Chaussée de Roeulx 292","postcode":"1400","city":"Nivelles","categories":"fill&enjoy ,fill&serve ,fill&go ,waterbars","telephone (optional)":null}},{"type":"Feature","geometry":{"type":"Point","coordinates":[4.3592278,50.7928582]},"properties":{"name":"Delhaize","street":"Chaussee de St. Job 532","postcode":"6000","city":"Charleroi","categories":"fill&enjoy ,fill&serve ,fill&go ,waterbars","telephone (optional)":null}},{"type":"Feature","geometry":{"type":"Point","coordinates":[4.40295,50.7022206]},"properties":{"name":"Carrefour","street":"Chaussée de Tervuren 42","postcode":"7100","city":"Haine St Pierre","categories":"fill&enjoy ,fill&serve ,fill&go ,waterbars","telephone (optional)":null}},{"type":"Feature","geometry":{"type":"Point","coordinates":[5.305945,50.5566578]},"properties":{"name":"Colruyt","street":"Chaussée de Tongres 247","postcode":"7500","city":"Tournai","categories":"fill&enjoy ,fill&serve ,fill&go ,waterbars","telephone (optional)":null}},{"type":"Feature","geometry":{"type":"Point","coordinates":[5.5502476,50.6696843]},"properties":{"name":"Delhaize","street":"Chaussée de Tongres 255","postcode":"7000","city":"Mons","categories":"fill&enjoy ,fill&serve ,fill&go ,waterbars","telephone (optional)":null}},{"type":"Feature","geometry":{"type":"Point","coordinates":[5.5502476,50.6696843]},"properties":{"name":"Séquoia","street":"Chaussée de Tongres 255","postcode":"1180","city":"Uccle","categories":"fill&enjoy ,fill&serve ,fill&go ,waterbars","telephone (optional)":null}},{"type":"Feature","geometry":{"type":"Point","coordinates":[5.5448407,50.6695282]},"properties":{"name":"Electro Pièces","street":"Chaussée de Tongres 269-271","postcode":"1410","city":"Waterloo","categories":"fill&enjoy ,fill&serve ,fill&go ,waterbars","telephone (optional)":null}},{"type":"Feature","geometry":{"type":"Point","coordinates":[3.3493237,50.6410272]},"properties":{"name":"Colruyt","street":"Chaussée de Tournai 94","postcode":"4540","city":"Amay","categories":"fill&enjoy ,fill&serve ,fill&go ,waterbars","telephone (optional)":null}},{"type":"Feature","geometry":{"type":"Point","coordinates":[4.4019521,50.8235049]},"properties":{"name":"Krëfel","street":"Chaussée de Wavre 1080","postcode":"4000","city":"Rocourt","categories":"fill&enjoy ,fill&serve ,fill&go ,waterbars","telephone (optional)":null}},{"type":"Feature","geometry":{"type":"Point","coordinates":[4.6853603,50.7459833]},"properties":{"name":"Medi-Market","street":"Chaussée de Wavre 174","postcode":"4000","city":"Rocourt","categories":"fill&enjoy ,fill&serve ,fill&go ,waterbars","telephone (optional)":null}},{"type":"Feature","geometry":{"type":"Point","coordinates":[4.6532931,50.7360404]},"properties":{"name":"Cora ","street":"Chaussée de Wavre 366","postcode":"4000","city":"Rocourt","categories":"fill&enjoy ,fill&serve ,fill&go ,waterbars","telephone (optional)":null}},{"type":"Feature","geometry":{"type":"Point","coordinates":[5.5448407,50.6695282]},"properties":{"name":"Euroshop","street":"Chaussée desTongres 269","postcode":"7520","city":"Ramegnies-Chin","categories":"fill&enjoy ,fill&serve ,fill&go ,waterbars","telephone (optional)":null}},{"type":"Feature","geometry":{"type":"Point","coordinates":[4.3865507,50.8728267]},"properties":{"name":"Färm - Hankar","street":"Chaussée dHelmet 184","postcode":"1160","city":"Auderghem","categories":"fill&enjoy ,fill&serve ,fill&go ,waterbars","telephone (optional)":null}},{"type":"Feature","geometry":{"type":"Point","coordinates":[4.3885528,50.8745969]},"properties":{"name":"Colruyt","street":"Chaussée dHelmet 280","postcode":"1390","city":"Grez-Doiceau","categories":"fill&enjoy ,fill&serve ,fill&go ,waterbars","telephone (optional)":null}},{"type":"Feature","geometry":{"type":"Point","coordinates":[4.3705336,50.8286564]},"properties":{"name":"Bio'K","street":"Chaussée dIxelles 331","postcode":"1390","city":"Gastuche / Grez Doiceau","categories":"fill&enjoy ,fill&serve ,fill&go ,waterbars","telephone (optional)":null}},{"type":"Feature","geometry":{"type":"Point","coordinates":[4.3633715,50.835558]},"properties":{"name":"Handyman","street":"Chaussée dIxelles 81","postcode":"4000","city":"Rocourt","categories":"fill&enjoy ,fill&serve ,fill&go ,waterbars","telephone (optional)":null}},{"type":"Feature","geometry":{"type":"Point","coordinates":[3.9756873,50.4565457]},"properties":{"name":"Bio-Planet","street":"Chaussée du Roeulx 186","postcode":"7000","city":"Mons","categories":"fill&enjoy ,fill&serve ,fill&go ,waterbars","telephone (optional)":null}},{"type":"Feature","geometry":{"type":"Point","coordinates":[3.8528784,50.6943219]},"properties":{"name":"Mr. Bricolage","street":"Chaussée Gabrielle Richet 227 D","postcode":"7860","city":"Lessines","categories":"fill&enjoy ,fill&serve ,fill&go ,waterbars","telephone (optional)":null}},{"type":"Feature","geometry":{"type":"Point","coordinates":[4.3654237,50.8342441]},"properties":{"name":"Färm","street":"Chaussée Ixelles 136","postcode":"1050","city":"Ixelles","categories":"fill&enjoy ,fill&serve ,fill&go ,waterbars","telephone (optional)":null}},{"type":"Feature","geometry":{"type":"Point","coordinates":[5.2814035,50.6987306]},"properties":{"name":"Krëfel ","street":"Chaussée Romaine 223","postcode":"4300","city":"Waremme","categories":"fill&enjoy ,fill&serve ,fill&go ,waterbars","telephone (optional)":null}},{"type":"Feature","geometry":{"type":"Point","coordinates":[5.2850493,50.6997749]},"properties":{"name":"Al'Binète","street":"Chaussée Romaine 244a","postcode":"4300","city":"Waremme","categories":"fill&enjoy ,fill&serve ,fill&go ,waterbars","telephone (optional)":null}},{"type":"Feature","geometry":{"type":"Point","coordinates":[5.3120754,50.5446508]},"properties":{"name":"Delhaize","street":"Chaussée Roosevelt 101","postcode":"4540","city":"Amay","categories":"fill&enjoy ,fill&serve ,fill&go ,waterbars","telephone (optional)":null}},{"type":"Feature","geometry":{"type":"Point","coordinates":[4.400514,50.712663]},"properties":{"name":"Vanden Borre","street":"Chee de Bruxelles 281","postcode":"1050","city":"Bruxelles","categories":"fill&enjoy ,fill&serve ,fill&go ,waterbars","telephone (optional)":null}},{"type":"Feature","geometry":{"type":"Point","coordinates":[4.8785868,50.4779416]},"properties":{"name":"Vanden Borre","street":"Chée de Louvain 328","postcode":"1410","city":"Waterloo","categories":"fill&enjoy ,fill&serve ,fill&go ,waterbars","telephone (optional)":null}},{"type":"Feature","geometry":{"type":"Point","coordinates":[5.5468249,50.6748065]},"properties":{"name":"Krëfel ","street":"Chée de Tongres 412","postcode":"5004","city":"Bouge","categories":"fill&enjoy ,fill&serve ,fill&go ,waterbars","telephone (optional)":null}},{"type":"Feature","geometry":{"type":"Point","coordinates":[4.3667048,50.8159371]},"properties":{"name":"Al'Binète","street":"Chée de Waterloo 697","postcode":"4000","city":"Rocourt","categories":"fill&enjoy ,fill&serve ,fill&go ,waterbars","telephone (optional)":null}},{"type":"Feature","geometry":{"type":"Point","coordinates":[4.3667362,50.8158772]},"properties":{"name":"Handyman","street":"Chée de Waterloo 699","postcode":"1180","city":"Uccle","categories":"fill&enjoy ,fill&serve ,fill&go ,waterbars","telephone (optional)":null}},{"type":"Feature","geometry":{"type":"Point","coordinates":[4.3634311,50.8359635]},"properties":{"name":"Inno","street":"Chee dIxelles 84/86","postcode":"1180","city":"Uccle","categories":"fill&enjoy ,fill&serve ,fill&go ,waterbars","telephone (optional)":null}},{"type":"Feature","geometry":{"type":"Point","coordinates":[4.8807057,50.4100456]},"properties":{"name":"Carrefour","street":"Chée.  de Dinant 1147","postcode":"5100","city":"Wepion","categories":"fill&enjoy ,fill&serve ,fill&go ,waterbars","telephone (optional)":null}},{"type":"Feature","geometry":{"type":"Point","coordinates":[5.3450139,50.2336191]},"properties":{"name":"Carrefour","street":"Chée. de Liège 41","postcode":"6900","city":"Marche","categories":"fill&enjoy ,fill&serve ,fill&go ,waterbars","telephone (optional)":null}},{"type":"Feature","geometry":{"type":"Point","coordinates":[2.9172495,51.2306109]},"properties":{"name":"Bio Shop  Mordan Oostende","street":"Christinastraat 69","postcode":"8400","city":"Oostende","categories":"fill&enjoy ,fill&serve ,fill&go ,waterbars","telephone (optional)":null}},{"type":"Feature","geometry":{"type":"Point","coordinates":[2.917712,51.2301855]},"properties":{"name":"Van de Velde","street":"Christinastraat 83","postcode":"8400","city":"Oostende","categories":"fill&enjoy ,fill&serve ,fill&go ,waterbars","telephone (optional)":null}},{"type":"Feature","geometry":{"type":"Point","coordinates":[4.2728655,50.4773878]},"properties":{"name":"Colruyt","street":"Clos du Chêne au Bois","postcode":"7160","city":"Chapelle-lez-Herlaimont","categories":"fill&enjoy ,fill&serve ,fill&go ,waterbars","telephone (optional)":null}},{"type":"Feature","geometry":{"type":"Point","coordinates":[4.4159244,51.207222]},"properties":{"name":"BRN NV De Brandnetel","street":"Consciencestraat 48","postcode":"2018","city":"Antwerpen","categories":"fill&enjoy ,fill&serve ,fill&go ,waterbars","telephone (optional)":null}},{"type":"Feature","geometry":{"type":"Point","coordinates":[3.0992437,51.1798515]},"properties":{"name":"Gereels Hendrik","street":"Constant Permekelaan 77","postcode":"8490","city":"Jabbeke","categories":"fill&enjoy ,fill&serve ,fill&go ,waterbars","telephone (optional)":null}},{"type":"Feature","geometry":{"type":"Point","coordinates":[4.699258,50.88132]},"properties":{"name":"Origin'O","street":"Craenendonck 5","postcode":"3000","city":"Leuven","categories":"fill&enjoy ,fill&serve ,fill&go ,waterbars","telephone (optional)":null}},{"type":"Feature","geometry":{"type":"Point","coordinates":[4.7183744,50.8854402]},"properties":{"name":"Moedertje Natuur","street":"De Becker Remyplein 24","postcode":"3010","city":"Kessel-Lo","categories":"fill&enjoy ,fill&serve ,fill&go ,waterbars","telephone (optional)":null}},{"type":"Feature","geometry":{"type":"Point","coordinates":[2.9628589,51.1553329]},"properties":{"name":"Manna","street":"De Donckerstraat 7","postcode":"8470","city":"Gistel","categories":"fill&enjoy ,fill&serve ,fill&go ,waterbars","telephone (optional)":null}},{"type":"Feature","geometry":{"type":"Point","coordinates":[4.357107,50.8045988]},"properties":{"name":"Delhaize","street":"De Frélaan 94","postcode":"1180","city":"Ukkel","categories":"fill&enjoy ,fill&serve ,fill&go ,waterbars","telephone (optional)":null}},{"type":"Feature","geometry":{"type":"Point","coordinates":[4.3681425,50.8287478]},"properties":{"name":"Delhaize","street":"de Henninstraat 18","postcode":"1050","city":"Elsene","categories":"fill&enjoy ,fill&serve ,fill&go ,waterbars","telephone (optional)":null}},{"type":"Feature","geometry":{"type":"Point","coordinates":[3.5282655,50.9000996]},"properties":{"name":"Van de Walle","street":"De Jonghestraat 11","postcode":"9770","city":"Kruishoutem","categories":"fill&enjoy ,fill&serve ,fill&go ,waterbars","telephone (optional)":null}},{"type":"Feature","geometry":{"type":"Point","coordinates":[4.9418624,51.322258]},"properties":{"name":"Handyman","street":"De Merodelei 32","postcode":"2300","city":"Turnhout","categories":"fill&enjoy ,fill&serve ,fill&go ,waterbars","telephone (optional)":null}},{"type":"Feature","geometry":{"type":"Point","coordinates":[4.3407587,50.8728049]},"properties":{"name":"Colruyt","street":"De Moorpelein 7","postcode":"1020","city":"Laken","categories":"fill&enjoy ,fill&serve ,fill&go ,waterbars","telephone (optional)":null}},{"type":"Feature","geometry":{"type":"Point","coordinates":[4.3183234,50.8564559]},"properties":{"name":"Delhaize","street":"de Rudderstraat 32","postcode":"1080","city":"Sint Jans Molenbeek","categories":"fill&enjoy ,fill&serve ,fill&go ,waterbars","telephone (optional)":null}},{"type":"Feature","geometry":{"type":"Point","coordinates":[3.3301457,50.8568641]},"properties":{"name":"Supra Bazar","street":"Deerlijksesteenweg 139","postcode":"8530","city":"Harelbeke","categories":"fill&enjoy ,fill&serve ,fill&go ,waterbars","telephone (optional)":null}},{"type":"Feature","geometry":{"type":"Point","coordinates":[3.7764246,51.053729]},"properties":{"name":"Kangoeroe","street":"Dendermondesteenweg 262","postcode":"9070","city":"Destelbergen","categories":"fill&enjoy ,fill&serve ,fill&go ,waterbars","telephone (optional)":null}},{"type":"Feature","geometry":{"type":"Point","coordinates":[4.3591172,51.060445]},"properties":{"name":"Den Alruin","street":"Dendermondsesteenweg 19","postcode":"2830","city":"Willebroek","categories":"fill&enjoy ,fill&serve ,fill&go ,waterbars","telephone (optional)":null}},{"type":"Feature","geometry":{"type":"Point","coordinates":[3.7752786,51.0548246]},"properties":{"name":"Bio-Planet","street":"Dendermondsesteenweg 301","postcode":"9070","city":"Destelbergen","categories":"fill&enjoy ,fill&serve ,fill&go ,waterbars","telephone (optional)":null}},{"type":"Feature","geometry":{"type":"Point","coordinates":[3.9216956,51.0456637]},"properties":{"name":"Selexion De Witte Winkel","street":"dendermondsesteenweg 61A","postcode":"9270","city":"Kalken","categories":"fill&enjoy ,fill&serve ,fill&go ,waterbars","telephone (optional)":null}},{"type":"Feature","geometry":{"type":"Point","coordinates":[3.3621653,50.8856028]},"properties":{"name":"Priem Nic","street":"Desselgem-Dries 85","postcode":"8792","city":"Desselgem","categories":"fill&enjoy ,fill&serve ,fill&go ,waterbars","telephone (optional)":null}},{"type":"Feature","geometry":{"type":"Point","coordinates":[5.1096977,50.9494644]},"properties":{"name":"Somers TV N.V.","street":"Diestersteenweg 13","postcode":"3545","city":"Halen","categories":"fill&enjoy ,fill&serve ,fill&go ,waterbars","telephone (optional)":null}},{"type":"Feature","geometry":{"type":"Point","coordinates":[5.2561859,50.94647]},"properties":{"name":"Joyffee","street":"Diestersteenweg 171 3510 Kermt","postcode":"3510","city":"Kermt","categories":"fill&enjoy ,fill&serve ,fill&go ,waterbars","telephone (optional)":null}},{"type":"Feature","geometry":{"type":"Point","coordinates":[4.8516496,50.9799648]},"properties":{"name":"Unikamp","street":"Diestsesteenweg 16","postcode":"3200","city":"Aarschot","categories":"fill&enjoy ,fill&serve ,fill&go ,waterbars","telephone (optional)":null}},{"type":"Feature","geometry":{"type":"Point","coordinates":[4.7414189,50.8862588]},"properties":{"name":"Delhaize","street":"Diestsesteenweg 545","postcode":"3010","city":"Kessel-Lo","categories":"fill&enjoy ,fill&serve ,fill&go ,waterbars","telephone (optional)":null}},{"type":"Feature","geometry":{"type":"Point","coordinates":[4.7608732,50.8888624]},"properties":{"name":"Jambe","street":"Diestsesteenweg 704","postcode":"3010","city":"Kessel-Lo","categories":"fill&enjoy ,fill&serve ,fill&go ,waterbars","telephone (optional)":null}},{"type":"Feature","geometry":{"type":"Point","coordinates":[4.7112853,50.8816863]},"properties":{"name":"Merckx Metaalwaren NV","street":"Diestsestraat 188","postcode":"3000","city":"Leuven","categories":"fill&enjoy ,fill&serve ,fill&go ,waterbars","telephone (optional)":null}},{"type":"Feature","geometry":{"type":"Point","coordinates":[4.7040765,50.8801997]},"properties":{"name":"Mafrans & Zonen BVBA","street":"Diestsestraat 32","postcode":"3000","city":"Leuven","categories":"fill&enjoy ,fill&serve ,fill&go ,waterbars","telephone (optional)":null}},{"type":"Feature","geometry":{"type":"Point","coordinates":[5.6976567,50.4789436]},"properties":{"name":"Delhaize","street":"Dieupart 39","postcode":"4920","city":"Aywille","categories":"fill&enjoy ,fill&serve ,fill&go ,waterbars","telephone (optional)":null}},{"type":"Feature","geometry":{"type":"Point","coordinates":[4.1028834,51.0308265]},"properties":{"name":"Electro Eeckhoudt Etienne","street":"Dijkstraat 116","postcode":"9200","city":"Dendermonde","categories":"fill&enjoy ,fill&serve ,fill&go ,waterbars","telephone (optional)":null}},{"type":"Feature","geometry":{"type":"Point","coordinates":[4.3226288,50.8937074]},"properties":{"name":"Delhaize","street":"Dikke Beuklaan 24","postcode":"1090","city":"Jette","categories":"fill&enjoy ,fill&serve ,fill&go ,waterbars","telephone (optional)":null}},{"type":"Feature","geometry":{"type":"Point","coordinates":[3.2689028,50.8209674]},"properties":{"name":"De Linde","street":"Doorniksewijk 76","postcode":"8500","city":"Kortrijk","categories":"fill&enjoy ,fill&serve ,fill&go ,waterbars","telephone (optional)":null}},{"type":"Feature","geometry":{"type":"Point","coordinates":[3.4452443,50.7757934]},"properties":{"name":"Vanwijnsberghe BVBA ","street":"Doorniksteenweg 6","postcode":"8580","city":"Avelgem","categories":"fill&enjoy ,fill&serve ,fill&go ,waterbars","telephone (optional)":null}},{"type":"Feature","geometry":{"type":"Point","coordinates":[3.92038,50.9117737]},"properties":{"name":"Ponnet","street":"Dorent 29","postcode":"9420","city":"Erpe-Mere","categories":"fill&enjoy ,fill&serve ,fill&go ,waterbars","telephone (optional)":null}},{"type":"Feature","geometry":{"type":"Point","coordinates":[3.6741592,51.235976]},"properties":{"name":"BRICO City Bassevelde","street":"Dorp 142","postcode":"9968","city":"Assenede","categories":"fill&enjoy ,fill&serve ,fill&go ,waterbars","telephone (optional)":null}},{"type":"Feature","geometry":{"type":"Point","coordinates":[2.71049,51.011635]},"properties":{"name":"Maes Elektro","street":"Dorp 4","postcode":"8690","city":"Alveringem","categories":"fill&enjoy ,fill&serve ,fill&go ,waterbars","telephone (optional)":null}},{"type":"Feature","geometry":{"type":"Point","coordinates":[3.595949,50.9597273]},"properties":{"name":"Haerts M. BVBA","street":"Dorp 41","postcode":"9810","city":"Nazareth","categories":"fill&enjoy ,fill&serve ,fill&go ,waterbars","telephone (optional)":null}},{"type":"Feature","geometry":{"type":"Point","coordinates":[3.8330475,51.0960794]},"properties":{"name":"t'Lang leven","street":"Dorp West 1","postcode":"9080","city":"Lochristi","categories":"fill&enjoy ,fill&serve ,fill&go ,waterbars","telephone (optional)":null}},{"type":"Feature","geometry":{"type":"Point","coordinates":[3.8255325,51.0948941]},"properties":{"name":"Geirregat","street":"Dorp-West 128","postcode":"9080","city":"Lochristi","categories":"fill&enjoy ,fill&serve ,fill&go ,waterbars","telephone (optional)":null}},{"type":"Feature","geometry":{"type":"Point","coordinates":[3.1787547,50.8760219]},"properties":{"name":"Vermeersch-Mullier","street":"Dorpsplein 15","postcode":"8880","city":"Sint-Eloois-Winkel","categories":"fill&enjoy ,fill&serve ,fill&go ,waterbars","telephone (optional)":null}},{"type":"Feature","geometry":{"type":"Point","coordinates":[4.6309752,50.8629377]},"properties":{"name":"Het Natuurhoekje","street":"Dorpsstraat 170","postcode":"3060","city":"Bertem","categories":"fill&enjoy ,fill&serve ,fill&go ,waterbars","telephone (optional)":null}},{"type":"Feature","geometry":{"type":"Point","coordinates":[5.1506933,51.1021484]},"properties":{"name":"Cartronics NV","street":"Dorpsstraat 5","postcode":"3945","city":"Ham","categories":"fill&enjoy ,fill&serve ,fill&go ,waterbars","telephone (optional)":null}},{"type":"Feature","geometry":{"type":"Point","coordinates":[4.3024397,51.0034711]},"properties":{"name":"De Decker BVBA","street":"Dorpsstraat 9","postcode":"1840","city":"Londerzeel","categories":"fill&enjoy ,fill&serve ,fill&go ,waterbars","telephone (optional)":null}},{"type":"Feature","geometry":{"type":"Point","coordinates":[3.5255282,51.2415933]},"properties":{"name":"Marijn De Roo","street":"Dorpstraat 103","postcode":"9980","city":"Sint-Laureins","categories":"fill&enjoy ,fill&serve ,fill&go ,waterbars","telephone (optional)":null}},{"type":"Feature","geometry":{"type":"Point","coordinates":[4.1741837,51.2910314]},"properties":{"name":"Van Kruyssen Electro ","street":"Dorpstraat 51","postcode":"9130","city":"kieldrecht","categories":"fill&enjoy ,fill&serve ,fill&go ,waterbars","telephone (optional)":null}},{"type":"Feature","geometry":{"type":"Point","coordinates":[4.1436404,51.0963112]},"properties":{"name":"Invicto ","street":"Drapstraat 17","postcode":"9220","city":"Hamme","categories":"fill&enjoy ,fill&serve ,fill&go ,waterbars","telephone (optional)":null}},{"type":"Feature","geometry":{"type":"Point","coordinates":[4.309606,50.3395364]},"properties":{"name":"Colruyt","street":"Drève des Aliés 108","postcode":"6530","city":"Thuin","categories":"fill&enjoy ,fill&serve ,fill&go ,waterbars","telephone (optional)":null}},{"type":"Feature","geometry":{"type":"Point","coordinates":[4.2807247,50.8192034]},"properties":{"name":"Cora","street":"Drève Olympique 15","postcode":"1070","city":"Anderlecht","categories":"fill&enjoy ,fill&serve ,fill&go ,waterbars","telephone (optional)":null}},{"type":"Feature","geometry":{"type":"Point","coordinates":[3.1882165,50.8563326]},"properties":{"name":"Supra Bazar","street":"Driemastenstraat 109","postcode":"8560","city":"Gullegem","categories":"fill&enjoy ,fill&serve ,fill&go ,waterbars","telephone (optional)":null}},{"type":"Feature","geometry":{"type":"Point","coordinates":[3.1964466,50.8496392]},"properties":{"name":"Neyrinck B.V.B.A.","street":"Driemastenstraat 60","postcode":"8560","city":"Gullegem","categories":"fill&enjoy ,fill&serve ,fill&go ,waterbars","telephone (optional)":null}},{"type":"Feature","geometry":{"type":"Point","coordinates":[3.7456346,51.0385223]},"properties":{"name":"Delhaize","street":"Driesstraat 96","postcode":"9050","city":"Gent","categories":"fill&enjoy ,fill&serve ,fill&go ,waterbars","telephone (optional)":null}},{"type":"Feature","geometry":{"type":"Point","coordinates":[3.0317688,51.2717985]},"properties":{"name":"De Rozemarijn ","street":"driftweg 20","postcode":"8420","city":"De Haan","categories":"fill&enjoy ,fill&serve ,fill&go ,waterbars","telephone (optional)":null}},{"type":"Feature","geometry":{"type":"Point","coordinates":[3.697048,51.0564521]},"properties":{"name":"Bio-Planet","street":"Drongensesteenweg 134","postcode":"9000","city":"Gent","categories":"fill&enjoy ,fill&serve ,fill&go ,waterbars","telephone (optional)":null}},{"type":"Feature","geometry":{"type":"Point","coordinates":[3.2936166,51.3525975]},"properties":{"name":"Elektro Home Jans Vools","street":"Dumortierlaan 92","postcode":"8300","city":"Knokke-Heist","categories":"fill&enjoy ,fill&serve ,fill&go ,waterbars","telephone (optional)":null}},{"type":"Feature","geometry":{"type":"Point","coordinates":[3.0099128,51.0464874]},"properties":{"name":"Vermeerch-de Coninck","street":"Edewallestraat 94","postcode":"8610","city":"Kortemark","categories":"fill&enjoy ,fill&serve ,fill&go ,waterbars","telephone (optional)":null}},{"type":"Feature","geometry":{"type":"Point","coordinates":[4.2205001,50.7276469]},"properties":{"name":"Collishop (Salle d'expo)","street":"Edingensesteenweg 249","postcode":"1500","city":"Hallle","categories":"fill&enjoy ,fill&serve ,fill&go ,waterbars","telephone (optional)":null}},{"type":"Feature","geometry":{"type":"Point","coordinates":[4.2159713,50.7269005]},"properties":{"name":"Colruyt","street":"Edingensesteenweg 300","postcode":"1500","city":"Halle","categories":"fill&enjoy ,fill&serve ,fill&go ,waterbars","telephone (optional)":null}},{"type":"Feature","geometry":{"type":"Point","coordinates":[4.075891,51.1390256]},"properties":{"name":"Horecamaterialen Demeester ","street":"Eeckelaerthof 6","postcode":"9111","city":"Belsele","categories":"fill&enjoy ,fill&serve ,fill&go ,waterbars","telephone (optional)":null}},{"type":"Feature","geometry":{"type":"Point","coordinates":[4.4652075,51.2498813]},"properties":{"name":"Het Natuurhuis Merksem","street":"Eethuisstraat 136-140","postcode":"2170","city":"Merksem","categories":"fill&enjoy ,fill&serve ,fill&go ,waterbars","telephone (optional)":null}},{"type":"Feature","geometry":{"type":"Point","coordinates":[5.3157882,51.2266456]},"properties":{"name":"Delhaize","street":"Einde 7","postcode":"3920","city":"Lommel","categories":"fill&enjoy ,fill&serve ,fill&go ,waterbars","telephone (optional)":null}},{"type":"Feature","geometry":{"type":"Point","coordinates":[2.8915601,51.2163038]},"properties":{"name":"Multimat","street":"Elisabethlaan 4","postcode":"8400","city":"Oostende","categories":"fill&enjoy ,fill&serve ,fill&go ,waterbars","telephone (optional)":null}},{"type":"Feature","geometry":{"type":"Point","coordinates":[3.2873786,51.3466766]},"properties":{"name":"BRICO City Knokke","street":"Elizabethlaan 102","postcode":"8300","city":"Knokke","categories":"fill&enjoy ,fill&serve ,fill&go ,waterbars","telephone (optional)":null}},{"type":"Feature","geometry":{"type":"Point","coordinates":[3.7173373,51.1168131]},"properties":{"name":"Eldi","street":"Elslo 51","postcode":"9940","city":"Evergem","categories":"fill&enjoy ,fill&serve ,fill&go ,waterbars","telephone (optional)":null}},{"type":"Feature","geometry":{"type":"Point","coordinates":[2.8824606,50.8523332]},"properties":{"name":"Eldi","street":"Elverdingsestraat 8","postcode":"8900","city":"Ieper","categories":"fill&enjoy ,fill&serve ,fill&go ,waterbars","telephone (optional)":null}},{"type":"Feature","geometry":{"type":"Point","coordinates":[4.3827824,50.8741811]},"properties":{"name":"Delhaize","street":"Emile Verhaerenlaan 84/92","postcode":"1030","city":"Schaerbeek","categories":"fill&enjoy ,fill&serve ,fill&go ,waterbars","telephone (optional)":null}},{"type":"Feature","geometry":{"type":"Point","coordinates":[5.841378,50.5813167]},"properties":{"name":"Quincaillerie Conradt","street":"En Mi-Ville 59-61","postcode":"4800","city":"Verviers","categories":"fill&enjoy ,fill&serve ,fill&go ,waterbars","telephone (optional)":null}},{"type":"Feature","geometry":{"type":"Point","coordinates":[3.0205678,51.0957048]},"properties":{"name":"Persijn","street":"Engelstraat 100","postcode":"8480","city":"Ichtegem","categories":"fill&enjoy ,fill&serve ,fill&go ,waterbars","telephone (optional)":null}},{"type":"Feature","geometry":{"type":"Point","coordinates":[2.88685,51.02923]},"properties":{"name":"Electro Tyrol","street":"Esenweg 112 bus 2","postcode":"8600","city":"Diksmuide","categories":"fill&enjoy ,fill&serve ,fill&go ,waterbars","telephone (optional)":null}},{"type":"Feature","geometry":{"type":"Point","coordinates":[2.743323,50.8506858]},"properties":{"name":"Desomer-Plancke","street":"europalaan 30","postcode":"8970","city":"Poperinge","categories":"fill&enjoy ,fill&serve ,fill&go ,waterbars","telephone (optional)":null}},{"type":"Feature","geometry":{"type":"Point","coordinates":[2.7427771,50.8515509]},"properties":{"name":"Eldi","street":"Europalaan 9","postcode":"8970","city":"Poperinge","categories":"fill&enjoy ,fill&serve ,fill&go ,waterbars","telephone (optional)":null}},{"type":"Feature","geometry":{"type":"Point","coordinates":[4.4719933,50.8448387]},"properties":{"name":"Colruyt","street":"F. Kinnenstraat 9-F","postcode":"1950","city":"Kraainem","categories":"fill&enjoy ,fill&serve ,fill&go ,waterbars","telephone (optional)":null}},{"type":"Feature","geometry":{"type":"Point","coordinates":[5.659793,50.5089107]},"properties":{"name":"Schoofs Electro","street":"Fond Leval 34","postcode":"4140","city":"Sprimont","categories":"fill&enjoy ,fill&serve ,fill&go ,waterbars","telephone (optional)":null}},{"type":"Feature","geometry":{"type":"Point","coordinates":[4.3375577,50.8355605]},"properties":{"name":"Origin'O","street":"Fonsnylaan 47","postcode":"1060","city":"Brussel","categories":"fill&enjoy ,fill&serve ,fill&go ,waterbars","telephone (optional)":null}},{"type":"Feature","geometry":{"type":"Point","coordinates":[3.2309033,51.2231315]},"properties":{"name":"Lowijck","street":"Fort Lapin 37","postcode":"8000","city":"Brugge","categories":"fill&enjoy ,fill&serve ,fill&go ,waterbars","telephone (optional)":null}},{"type":"Feature","geometry":{"type":"Point","coordinates":[4.4392437,51.1829042]},"properties":{"name":"Delhaize","street":"Fruithoflaan 85","postcode":"2600","city":"Berchem","categories":"fill&enjoy ,fill&serve ,fill&go ,waterbars","telephone (optional)":null}},{"type":"Feature","geometry":{"type":"Point","coordinates":[2.6624889,51.0794886]},"properties":{"name":"Bruneel Elektro BVBA","street":"G. Bouillartlaan 12","postcode":"8630","city":"Veurne","categories":"fill&enjoy ,fill&serve ,fill&go ,waterbars","telephone (optional)":null}},{"type":"Feature","geometry":{"type":"Point","coordinates":[5.5734014,50.6441084]},"properties":{"name":"Media Markt","street":"Galerie St. Lambert","postcode":"4000","city":"Liège","categories":"fill&enjoy ,fill&serve ,fill&go ,waterbars","telephone (optional)":null}},{"type":"Feature","geometry":{"type":"Point","coordinates":[4.2129052,51.1290305]},"properties":{"name":"De Graal","street":"Gasthuisstraat 26","postcode":"9140","city":"Temse","categories":"fill&enjoy ,fill&serve ,fill&go ,waterbars","telephone (optional)":null}},{"type":"Feature","geometry":{"type":"Point","coordinates":[2.723904,50.8560456]},"properties":{"name":"Het Zevenblad","street":"Gasthuisstraat 31","postcode":"8970","city":"Poperinge","categories":"fill&enjoy ,fill&serve ,fill&go ,waterbars","telephone (optional)":null}},{"type":"Feature","geometry":{"type":"Point","coordinates":[4.0925208,50.8625365]},"properties":{"name":"De Zonnebloem","street":"Gaston Mertensstraat 19","postcode":"1770","city":"Liedekerke","categories":"fill&enjoy ,fill&serve ,fill&go ,waterbars","telephone (optional)":null}},{"type":"Feature","geometry":{"type":"Point","coordinates":[3.5363095,50.9740305]},"properties":{"name":"De Goudsbloem","street":"Gaversesteenweg 127","postcode":"9800","city":"Deinze","categories":"fill&enjoy ,fill&serve ,fill&go ,waterbars","telephone (optional)":null}},{"type":"Feature","geometry":{"type":"Point","coordinates":[4.4799699,51.0272362]},"properties":{"name":"Handyman Mechelen","street":"Geitestraat 13","postcode":"2800","city":"Mechelen","categories":"fill&enjoy ,fill&serve ,fill&go ,waterbars","telephone (optional)":null}},{"type":"Feature","geometry":{"type":"Point","coordinates":[3.2899196,51.3407818]},"properties":{"name":"Ekinoks","street":"Gemeenteplein 14","postcode":"8300","city":"Knokke","categories":"fill&enjoy ,fill&serve ,fill&go ,waterbars","telephone (optional)":null}},{"type":"Feature","geometry":{"type":"Point","coordinates":[4.3318856,50.7416413]},"properties":{"name":"Colruyt","street":"Gemeenveldstraat 3","postcode":"1652","city":"Alsemberg","categories":"fill&enjoy ,fill&serve ,fill&go ,waterbars","telephone (optional)":null}},{"type":"Feature","geometry":{"type":"Point","coordinates":[2.8596593,51.0332574]},"properties":{"name":"De Koriander","street":"Gen. Baron Jacquesstraat 69","postcode":"8600","city":"Diksmuide","categories":"fill&enjoy ,fill&serve ,fill&go ,waterbars","telephone (optional)":null}},{"type":"Feature","geometry":{"type":"Point","coordinates":[3.2847866,50.8502665]},"properties":{"name":"Depijpere","street":"Generaal Eisenhowerstraat 49","postcode":"8520","city":"Kuurne","categories":"fill&enjoy ,fill&serve ,fill&go ,waterbars","telephone (optional)":null}},{"type":"Feature","geometry":{"type":"Point","coordinates":[4.403474,50.8663246]},"properties":{"name":"Delhaize","street":"Genèvestraat 2","postcode":"1140","city":"Evere","categories":"fill&enjoy ,fill&serve ,fill&go ,waterbars","telephone (optional)":null}},{"type":"Feature","geometry":{"type":"Point","coordinates":[5.3821747,50.9914815]},"properties":{"name":"Evers N.V.","street":"Genkerbaan 142","postcode":"3520","city":"Zonhoven","categories":"fill&enjoy ,fill&serve ,fill&go ,waterbars","telephone (optional)":null}},{"type":"Feature","geometry":{"type":"Point","coordinates":[5.3521396,50.9437308]},"properties":{"name":"Bio-Planet","street":"Genkersteenweg 84","postcode":"3500","city":"Hasselt","categories":"fill&enjoy ,fill&serve ,fill&go ,waterbars","telephone (optional)":null}},{"type":"Feature","geometry":{"type":"Point","coordinates":[5.3521396,50.9437308]},"properties":{"name":"Vanden Borre","street":"Genkersteenweg 84","postcode":"3500","city":"Hasselt","categories":"fill&enjoy ,fill&serve ,fill&go ,waterbars","telephone (optional)":null}},{"type":"Feature","geometry":{"type":"Point","coordinates":[3.527184,50.9846396]},"properties":{"name":"Bio Shop Deinze","street":"Gentpoortstraat 4","postcode":"9800","city":"Deinze","categories":"fill&enjoy ,fill&serve ,fill&go ,waterbars","telephone (optional)":null}},{"type":"Feature","geometry":{"type":"Point","coordinates":[3.9417045,51.114366]},